x,y,name,length,longitude,latitude
1541385.776,762753.1646,Beverly Turnpike,5.53827114,-120.9000445,47.42418725
895852.5421,456270.7559,Willapa Hills,1.62883382,-123.4598902,46.54622937
1056043.25,647445,Chehalis Western,6.42931093,-122.8460998,47.08491212
1042724.339,636177.4566,Promenade,1.16955555,-122.8981641,47.05293427
1027590.406,643249.4687,Evergreen Parkway/McLane School Forest,1.0279727,-122.9597328,47.07103781
1096354.875,578735,Yelm-Tenino,13.65177164,-122.6767345,46.89976205
1192319.792,162358.5,180b,2.11244398,-122.2558548,45.76487784
1048833.5,629955.9999,Olympia Woodland,2.4873989,-122.872916,47.03639025
1402672.582,540002.7526,Cougar Lake,2.94112059,-121.449519,46.81022015
1399426.834,542980.8407,American Ridge,1.08041734,-121.4626259,46.81827769
1411705.99,618403.4019,Arch Rock,3.2552178,-121.4170844,47.02546943
1563165.929,766124.9214,Cascade Creek,2.38693274,-120.8121165,47.43370025
1594659.002,1097691.725,Boulder Creek,9.2244675,-120.6880696,48.34272694
1578915.875,1318458.625,Blizzard Peak,1.70546894,-120.7557171,48.94736639
1512791.234,1142806.5,Cascade Pass,6.1981155,-121.0257855,48.46532083
1546722.063,1310336.375,Castle Pass,16.93736651,-120.8894088,48.92476158
1577359.59,1322978.125,Boundary,6.1340977,-120.7622505,48.9597297
1595414.41,1249085.062,Buffalo Pass,2.1358647,-120.6864356,48.75748613
1341864.695,382325.0914,Blue Lake Ridge,9.78503943,-121.6829013,46.37562868
936944.979,344998.4999,Bradley Trail,3.38340601,-123.2810843,46.24539607
1349013.414,389160.7782,Blue Lake Butte,3.70361055,-121.6549778,46.39466226
1195333.044,309215.8344,Blue Lake Horse,4.80863476,-122.2568667,46.16768875
1360237,174600,Buck Creek Trail,1.82462603,-121.5986546,45.80677416
1197579.47,335435.97,Castle Lake,3.45020793,-122.2502987,46.2397111
1399620.704,607120.2316,Castle Mountain,5.44639496,-121.4649858,46.99413914
1194776.43,328590.4709,Castle Ridge,1.76356455,-122.26077,46.22077238
1584987.388,745024.2153,County Line,5.63917003,-120.7237099,47.3760564
1627334.477,717795.3406,Elk Trap Springs,1.13828097,-120.5527258,47.30161018
1505699.179,822894.0016,French Creek,10.52138656,-121.0458811,47.5884658
1570347.152,759196.1666,Etienne Creek,3.20214528,-120.783002,47.4147797
1526932.931,1021131.303,High Pass,2.5547377,-120.9645743,48.1321681
1643664.24,1075380.752,Eagle Pass,1.0859117,-120.4866676,48.2817418
1609704.596,1148459.948,Copper Pass,6.22803494,-120.6265654,48.4819078
1673639.551,1049453.438,Hoodoo Pass,1.28330053,-120.3637921,48.21061775
1675363.631,1033480.357,Foggy Dew (Section 2),2.32862542,-120.3568426,48.1668382
1411646.312,629547.8941,Greenwater,10.44038826,-121.4178437,47.05602209
1575932.063,1274918,Devils Ridge,8.07511991,-120.7675096,48.82808997
1569492.875,1209155,East Creek,9.72086465,-120.7932077,48.64789202
1386928.187,577659.875,Crystal Lakes,4.08848226,-121.5143273,46.91293058
1374509.125,532631.7188,Eastside,5.97167219,-121.5615911,46.78902562
1326231.625,1210975.25,Dock Butte,1.73322578,-121.7988923,48.64615283
1420891.813,496757,Dumbbell Lake,1.3164206,-121.3748444,46.69222277
1406159.728,495518.1083,Cortright Creek,4.29471599,-121.4334905,46.68836276
1400651.985,465333.4797,Clear Fork,8.74122399,-121.4539815,46.60541769
1372146.889,290919.5813,Crofton Ridge,2.53134602,-121.5580768,46.1261742
1224116.632,382690.5294,Green River,12.92751119,-122.1493478,46.3708338
1227601.092,387373.0841,Goat Mountain,9.33279789,-122.1359314,46.38387072
1190625.863,305361.7273,Goat Marsh,1.00011496,-122.2750987,46.15683331
1434817.658,797514.222,Dutch Miller Gap Trail,10.10867914,-121.3319937,47.51719742
1192278.5,150472,Grouse Vista Trail,2.14421245,-122.2549804,45.7322873
1235315.816,1106658.967,Cavanaugh,1.05314251,-122.1655484,48.35572723
1250016.754,1108049.314,Centennial,1.62369372,-122.1052397,48.36037104
2023566.441,1232490.228,Clackamas Mountain,8.24932496,-118.9142781,48.70162528
1246718.217,1103517.514,Dougs Loop,1.02706416,-122.1184165,48.34777183
1469845.136,1079664.781,Downey Creek,6.0077167,-121.200395,48.29140622
1360271.438,380810.3172,Hamilton Buttes,6.82856938,-121.6098969,46.37220882
1434336.293,1079244.924,Huckleberry Mtn,5.76473151,-121.3461715,48.28930195
1191215.673,350839.8747,Hummocks,1.80055704,-122.2768142,46.28155218
1595073.37,735275.3706,Iron-Blewett Tie,2.61843372,-120.6829123,47.34940093
1528281.28,965661.6754,Indian Creek,11.16796807,-120.9577368,47.9801751
1207423.571,299670.8985,Kalama Snow,9.4071523,-122.2083414,46.14224826
1370961.51,394669.4536,Klickitat Loop,21.58575182,-121.5682932,46.41061508
1409020.61,509742.0031,Jug Lake,3.24718317,-121.4227543,46.7274557
1322050.549,369017.5759,Juniper Ridge,11.27972211,-121.760552,46.3382989
1187609.703,705445.8901,Interurban Trail - Milton,2.51149432,-122.3234936,47.25341404
1477600.654,828775.5184,Lake Clarice,2.86273179,-121.1599321,47.6039993
1182738.983,128769.6553,Little Washougal,1.31552403,-122.2903972,45.67220081
1399914.021,510590.1636,Kincaid,7.37641456,-121.4591069,46.72948339
1235622.51,362412.5845,Lakes,12.42983652,-122.1021435,46.31588855
1535337.641,1044258.638,Lyman Ridge,1.4207752,-120.9306851,48.19567498
1636173.805,725395.258,Mount Lillian,1.57657502,-120.5171069,47.3224568
1535813.486,772349.7062,Longs Pass,1.96321527,-120.9227616,47.45041567
1505459.704,798358.0658,North Scatter Creek,2.98257492,-121.046163,47.52120238
1753584.929,957177.111,Outback,3.95521918,-120.0382498,47.95690538
1654812.806,1082075.32,Oval Creek,7.26168823,-120.4408781,48.3000717
1572510.562,1222306.188,Mill Creek,9.50190777,-120.780926,48.68394745
1386163,559898.0626,Naches Peak Loop,1.42427471,-121.5164729,46.86420505
1330759.375,529089.5625,Lowlakes,1.35561074,-121.7360064,46.77756671
1383968.74,349709.6014,Muddy Meadows,4.35071417,-121.5144377,46.28780532
1367471.804,198455.5332,Monte Carlo,5.89285154,-121.5715594,45.87245979
1200578.825,319061.3707,Loowit,25.90936965,-122.2370226,46.19500004
1429597.473,628410.3004,Louisiana Saddle,2.76748108,-121.3457791,47.05345342
1223691.922,898644.6389,North Creek Trail,1.67063033,-122.1949497,47.78511203
1405640.252,722773.3225,Meadow Mountain Trail,1.900896,-121.4464258,47.31140817
1196607.98,242236.4999,Mitchell Peak Trail,1.35139361,-122.2459845,45.98413408
1249103.479,1105619.476,Martys Mania,1.35656405,-122.1087901,48.35366371
1335018.437,529968.0626,Mazama,1.75628057,-121.7190632,46.78015706
1466233.063,920568.4337,Meadow Creek Trail,7.04398921,-121.2093511,47.8553296
1434028.259,630177.0677,Middle Fork,6.61636688,-121.3280791,47.05842625
1371342.288,283107.313,Morrison Creek,4.89713477,-121.5608355,46.10472291
1306881.703,1215596.245,Nooksack Flat,3.59824777,-121.8792063,48.65790981
1396373.941,596623.789,Norse Peak,4.80762203,-121.4774746,46.9652514
1670623.292,1045934.644,Prince Creek,4.26357841,-120.3761809,48.2009889
1505369.875,1146294.563,Sahale Ridge,1.25144957,-121.0564601,48.47473758
1383519.415,303857.2303,Round The Mountain,7.61636035,-121.5138836,46.16205962
1413392.403,508465.6152,Pot Hole,1.30875788,-121.4052637,46.72409488
1428826.221,617035.3541,Raven Roost,3.69341851,-121.3483822,47.02224397
1239178.811,1115372.465,Pats,1.34664373,-122.1504201,48.37981916
1620030.599,727950.8597,Swuak Forest Discovery,2.36389592,-120.5822056,47.32943532
1617885.28,732112.1197,Wenatchee Ridge,4.2165009,-120.5908758,47.34083725
1627071.856,720023.5066,Table Mountain,2.06256943,-120.5537903,47.30771844
1505201.055,794744.9795,Scatter Creek,3.62359951,-121.0471083,47.51129296
1523335.977,786695.1267,Van Epps Pass,4.06368207,-120.9735373,47.4895474
1489871.957,928652.4148,Top Lake,5.9741862,-121.1133435,47.87802912
1668408.581,1076098.535,West Fork Buttermilk,7.80662035,-120.385079,48.2836535
1621498.947,1127981.744,South Creek,7.97638991,-120.5778772,48.4258436
1627975.845,1096809.703,War Creek,9.09699155,-120.5511311,48.3404486
1681077.071,1023309.419,Summer Blossom,5.25494942,-120.3335259,48.1389353
1596505.655,1142819.299,Twisp Pass,7.42206502,-120.6809051,48.46638335
1630674.186,1094064.435,Splawn,3.22365257,-120.5400353,48.33293075
1726220.111,999429.9102,Squaw Creek,3.39194665,-120.1491354,48.07308901
1586625.184,747933.1875,Shaser Creek Road System Trail,7.24378898,-120.7171322,47.38404392
1530562.348,777346.6159,Upper Ingalls Way,1.05615278,-120.9440977,47.46403503
1606492.25,1242365.25,Slate Pass,2.40559445,-120.6404928,48.73914247
1507365.625,1204804.5,Thunder Creek,9.27073644,-121.0499177,48.63506484
1402549,529951.6249,Two Lakes,1.41957185,-121.4495293,46.78265742
1357234.188,544544.7813,Wonderland,20.22327736,-121.6312312,46.82103014
1529907.625,1150391.375,Thunder - Park Creek,11.88595824,-120.9554523,48.48639279
1425641.75,494890.875,Shellrock Lake,4.23856415,-121.3558359,46.68724885
1425323.813,506686.5156,Tumac,3.28418163,-121.3576137,46.71958233
1192036.718,155500.4042,Sturgeon,1.25314272,-122.2563654,45.7460584
1406509.595,478651.9749,Sand Lake,3.6769364,-121.4313029,46.6421283
1202419.641,355548.528,South Coldwater,3.29254313,-122.2329204,46.2951449
1330043.055,389821.4633,Valley,15.48482423,-121.7301959,46.3956873
1198628.01,319612.8097,Sheep Canyon,1.43334717,-122.2447725,46.19639381
1305109.643,1210994.406,Three Lakes,1.51420849,-121.886198,48.6452205
1174410.496,152109.615,Thrillium Mtn Bike Trail,2.55533654,-122.3250782,45.73566505
1247469.886,1107810.147,Webers Wanderings,1.17471687,-122.1156888,48.35957339
1647047.819,521455.9936,Skyline Trail,9.10309781,-120.4735396,46.76328481
1444061.573,626853.2144,South Fork,5.17524531,-121.2876926,47.04959499
1252924.312,384157.8962,Strawberry Mountain,8.98733705,-122.0353571,46.37645156
1239069.627,1110049.462,Tooler,2.18618144,-122.150411,48.36523126
1193903.006,311268.9309,Toutle,10.53968172,-122.2626907,46.17323005
1523988.11,1023486.223,Triad/Upper Suiattle,3.33533735,-120.9766876,48.13857328
1236255.98,395115.2839,Tumwater,8.50464784,-122.1022659,46.40558438
1237791.963,1113859.172,Upper Mainline,1.36315533,-122.1559923,48.37559408
1381161.829,269540.8341,Wicky Creek,2.20623171,-121.5214334,46.06787819
1634281.813,727019.3742,Upper Naneum,2.34501845,-120.5247373,47.32690807
1039345.5,781832.9999,4x4 Loop,1.70036026,-122.9297096,47.45180073
1047750.263,778274,1.9 Mile Trail,2.26185,-122.8953193,47.44275314
1069092.28,824884,Beaver Pond,2.65045225,-122.8146402,47.57221776
1036325.5,781458.5,Hoof & Tail Trail,1.29939162,-122.9418627,47.45051893
1050218,780923.4999,Derailleur Trail,1.41811049,-122.8856756,47.45021824
1029115,781572.5,Howell Lake Loop,2.61481461,-122.9710046,47.4502158
1035176.5,787355,Howell Lake Trail,2.13429097,-122.9472435,47.46657838
1044017.5,786067,Nucleus Trail,1.43103302,-122.9113589,47.46379545
1055257.786,786317,Overland Trail,3.05488249,-122.86597,47.46541351
1048869.5,788984.9999,Mission Creek Stagin,1.44294809,-122.8921111,47.47219614
1047244.5,780124.4999,Mission Creek Trail,2.00987259,-122.8975894,47.44778171
1048230,784595,Nw Passage Trail,1.15291445,-122.8941568,47.46011368
1060999,788925,Raines Grade,1.59897992,-122.8430835,47.47302969
1068212.5,820782.5,Plummer,1.21493026,-122.8177143,47.56090839
1039606.333,792799.0001,Randys H20 Stop,3.16961637,-122.9300211,47.48187086
1037651.5,783468.4999,Road Apple Road,2.32984476,-122.9367571,47.45613897
1051291,791403.5,Salmon Trail,1.34657095,-122.8826202,47.47902409
1035138.5,790118.4999,Twin Lakes Trail,2.10985364,-122.9477437,47.47414739
1045337,784655.5,Tahuya River Staging,1.7033128,-122.9058532,47.46003818
1034866.5,784778.9999,Tahuya River Trail,8.58622557,-122.948173,47.45949351
1053328,794342.5,Tommy Trail,1.43021065,-122.8747447,47.48724576
1075034.5,828552,Wildcat,4.10841534,-122.7910112,47.58274397
990035.9999,605284,Basin Tie,1.21395512,-123.1053288,46.96368917
982328.4825,610057.918,Capitol Peak Trail,1.1330775,-123.1368201,46.97606951
998376.3162,587431.0037,Campground Trail,1.93947263,-123.0696135,46.91551367
1000858.92,588123.2227,Equine Loop,1.22560089,-123.0597743,46.917632
974634.3872,604099.1623,Greenline Tie,1.36800184,-123.1668185,46.95903118
969366.0368,604626.8611,Crestline Trail,3.85032577,-123.1879768,46.95998701
992218.6469,622937.5269,Divide Trail North,3.79786668,-123.098921,47.0122645
983586,610013.9999,Divide Trail South,4.09581893,-123.1317794,46.97606429
981857.5646,602439.1094,Greenline,5.40196506,-123.1376851,46.95514784
1001621.352,579444.8468,Mima Mounds Nature Trail,1.16053457,-123.0555999,46.89391646
972017.302,613165.5856,Larch Trail West,7.0298971,-123.178526,46.98363319
980386.6496,591842.7339,Lost Valley Trail,2.30298408,-123.142151,46.92597451
995988.7254,588477.1534,Mima Falls Tie,1.02270517,-123.0792993,46.918167
986353.2303,601660.8312,Little Larch Trail,1.34658643,-123.1195887,46.95342576
980569.8866,615014.5691,Larch Trail East,4.68801255,-123.1445268,46.98949117
980554.9042,631038.6176,Loki Trail,4.31933759,-123.1467409,47.03340117
995333.9232,593001.7406,Mckenny Trail,6.38434882,-123.082511,46.93050783
986606.7144,587594.5821,Mima Falls Trail,6.96571755,-123.116706,46.91490117
990186.8653,627824.8196,North Rim Trail,2.7398888,-123.107709,47.02547373
973962.2755,635521.2265,Orv Park Tie,3.39923404,-123.1737734,47.04507534
999369.737,621111.8247,Rock Candy Trail,2.16894424,-123.070031,47.00790366
956222.6358,601549.2744,Porter Trail,12.43347566,-123.2401543,46.95031368
987492.8373,613451.5673,Slide Trail,1.22355548,-123.1165938,46.98584089
989954.7564,611515.856,Twin Peaks Trail,5.62500466,-123.1064786,46.98075972
1000935.115,606006.8076,Waddell Basin East,8.00488027,-123.0617935,46.96664866
989871.6777,606350.5176,Waddell Basin West,8.76863648,-123.1061276,46.966597
979791.8088,600241.3113,Wedekind Trail,6.01818004,-123.1456576,46.94893534
1109134.296,1188358.938,Bradberry Lake,1.39317014,-122.6934402,48.57104513
1114499.076,1187002.563,Cypress Head,1.07120179,-122.6711484,48.56773727
1104995.125,1185697.625,Cypress Mainline,4.28403533,-122.7102124,48.56344065
1105950.836,1196600,Duck Lake Loop,2.43314059,-122.7075285,48.59336968
1102227.125,1179998.875,Reef Point,1.01267155,-122.7209704,48.54762164
1103883.5,1197482.312,Smugglers Cove,1.1859356,-122.7161652,48.59562703
1102875.357,1184701.125,Strawberry Bay,1.47896055,-122.7188425,48.56054873
1118269.375,1133357.124,Deception Pass,1.32146821,-122.6495574,48.42110221
1076098.727,987502.7274,Anderson,1.4808604,-122.8055224,48.01832077
1078490.941,989504.9081,Cascade,1.50284648,-122.7959926,48.02399684
1074219.702,987229.7766,Olympic,1.08742593,-122.8131621,48.01742229
1077505.577,987392.421,Lakeside,1.54533885,-122.7997648,48.01813113
1090798.276,1058645.19,Bluff,1.44827466,-122.7538031,48.2143653
1083389.277,1218839.544,Moran,1.79952965,-122.8033453,48.65250153
1104325.337,1093472.839,Joseph Whidbey,1.21978942,-122.7023488,48.310808
1023457.116,1208321.204,Jones Island,1.06994456,-123.0495991,48.61865129
1150083.52,1032298.84,Cross Island,1.09961333,-122.5080556,48.14658241
1085150.197,1032452.399,Fort Worden,1.61538678,-122.7738557,48.14217374
1138043.968,1101315.727,Wetland,1.45365708,-122.5647359,48.33478892
1077220.448,1201685.16,Obstruction Pass,1.03446178,-122.8267473,48.60503273
1129741.762,1002036.617,Ridge Loop,1.33373313,-122.5880428,48.0622305
1060071.661,1255021.8,Sucia Island State Park,1.2361528,-122.9042659,48.74966427
1371323.316,1153898.012,Evergreen,2.26639421,-121.6091846,48.4916904
1147085.585,812061.1785,Blake Island,1.18899745,-122.4974919,47.5429231
1073450.772,659663.0359,Outer Loop,1.93515596,-122.7776688,47.11979592
1026754.026,753388.8929,Twanoh,1.89956268,-122.9769655,47.37278597
869875.8793,623494.1403,Lake Sylvia,1.82472397,-123.5890745,47.00169719
739508.2436,369972.2103,North Head,1.51310324,-124.0651391,46.29205106
740262.2174,386647.8781,Discovery,7.50570849,-124.0651401,46.33782688
750960.3758,482582.3914,Dune Forest Loop,2.37930954,-124.0398665,46.60195382
776700.4149,355341.9184,Military Road,1.09891346,-123.9156421,46.25648179
774703.7302,354937.6354,Scarborough,1.08882962,-123.9234589,46.25513687
777721.155,355622.571,Canyon Creek,1.46789421,-123.9116585,46.2573718
741666.7455,365230.73,Westwind,1.19456727,-124.0557636,46.27932897
733549.9423,590524.3803,Seashore Conservation,1.71246582,-124.1288103,46.89546438
1053596.747,362551.1941,Seaquest #6,1.05058821,-122.8222517,46.30385214
1130248.949,178484.2435,Battle Ground Lake,2.31305765,-122.5005821,45.80503394
2483850.49,288509.9493,Fields Spring,1.15033792,-117.1756026,46.07575181
2011239.687,321747.9268,Sacajawea,1.02842831,-119.0352676,46.20620677
1583205.613,904619.6141,Lake Wenatchee,1.00770281,-120.7328021,47.81353069
1716296.066,924741.6739,Little Bear,1.27758887,-120.1909129,47.86850715
1728324.89,1151195.341,Pearrygrin Lake,1.18538749,-120.1376781,48.48891639
1705577.842,577509.9458,John Wayne Pioneer,109.1692497,-120.2392479,46.9166933
1715459.697,863774.9683,Daroga State Park,2.57360692,-120.1952791,47.70140859
1693327.126,801344.9005,Rocky Reach,1.01114962,-120.2858387,47.53047427
1686873.789,773233.9128,Apple Capital Recreation Loop,3.44603004,-120.3122301,47.45345656
1753290.087,797937.2053,Duffy Creek,2.3667321,-120.0432155,47.52043356
816502.1077,616534.3363,Morrison Riverfront Walkway,1.50923903,-123.8016393,46.97670277
811762.8274,609897.9368,Chehalis River Trailway,3.17274177,-123.8194899,46.95797707
820235.3818,611257.285,Basich Trailway,1.18025443,-123.785816,46.96267346
850358.9371,601799.2414,Preacher Slough Interpretive,3.5469851,-123.6637477,46.94013773
911433.9141,619402.6148,Vance Creek Park Loop,1.14531104,-123.422019,46.99482765
854532.4622,604437.2722,Friends Landing Loop,1.52350718,-123.6474742,46.94782296
2504926.5,281906.0001,Shumaker,1.58452435,-117.0937569,46.05519307
2539462.882,277660.8505,Sherry Grade,5.24878147,-116.9586103,46.03939311
2287530.293,264953.8751,3214,3.26191318,-117.9517773,46.03123511
2287445.25,271346.6095,3213,2.89167612,-117.9512988,46.04876432
2360974.675,291082.6223,Danger Point,2.05441687,-117.6590987,46.09596733
2326572.194,298739.82,Spangler Creek,3.55581759,-117.7935908,46.12026949
2414161.668,337718.9239,North Fork Asotin Creek,10.16496863,-117.44248,46.21831632
2395332.728,279246.2804,First Creek,5.87988004,-117.5255218,46.06005802
2358724.896,340309.9365,Hixon Canyon,2.73555549,-117.6609784,46.2310977
2314656.076,288743.0978,Touchet Middle Tie,1.54454348,-117.841884,46.09398233
2389385.857,286606.7671,Halsey Butte,1.71803608,-117.5478464,46.080841
2423106.2,285015.1921,Lake Ridge,5.3866054,-117.4153114,46.07294182
2304308.993,255161.9042,Deep Saddle,2.54060848,-117.8870303,46.0028918
2382249.604,259085.0769,Fire,1.77768958,-117.5799631,46.00614871
2381711.264,266883.5034,Coyote,1.76884969,-117.5809447,46.02757436
2418370.699,339288.5702,Pinkham,2.54990925,-117.4256228,46.22216895
2388432.185,266529.0095,Three Forks,2.48386619,-117.5545558,46.0259179
2369993.516,262154.787,Patterson Ridge,3.45482187,-117.6277233,46.01579492
2351185.662,333435.5604,Salter,2.18862724,-117.6917179,46.21299824
2356121.644,262274.9311,Weller Butte,2.81294277,-117.6822718,46.01749597
2381880.557,314495.3345,Elk Flat - Wash,3.57288839,-117.5733254,46.15803353
2370072.492,298077.81,Miner's Ridge,4.30141681,-117.6222551,46.11423342
2386751.255,312953.0483,Bear Creek,7.45129054,-117.554345,46.15330996
2349806.048,342321.6755,Camp Wooten Nature Trail,1.07120265,-117.6959166,46.23748565
2386054.068,258741.3796,Moore Rim,1.15918097,-117.5650519,46.00481971
2309122.919,266954.3238,Buck Ridge,5.39639407,-117.8665485,46.03477338
2345930.34,266365.7805,Butte Creek,4.70653984,-117.7217945,46.02969844
2348197.771,281973.0351,East Butte Creek,9.34401435,-117.7107006,46.07225223
2296937.25,296145.6564,Day Ridge,1.41708682,-117.9107301,46.11588712
2297426,288374.5625,Griffin Peak,4.28198243,-117.90981,46.09454393
2363581.715,295088.6959,Grizzly Bear Ridge,3.08504223,-117.6482582,46.10668811
2406495.036,329662.1585,Hard To Get To Ridge,4.04322212,-117.4739663,46.19704934
2369697.306,284418.6283,Crooked Creek,15.62332033,-117.6256958,46.07683823
2336715.534,260215.4356,Grizzly Bear,2.98222051,-117.7588929,46.01372657
2325478.15,259283.2276,Dexter Ridge,2.13138322,-117.8032215,46.01223375
2439236.749,295563.6861,Indian Tom,2.97629806,-117.3501462,46.10009865
2400107.941,294543.9478,July Ridge,3.79828143,-117.5044368,46.10148336
2272073.394,266176.7804,Intake/Deadman Peak,11.0655834,-118.0124513,46.03593984
2276336.5,264455.3124,North Fork,1.79577545,-117.995889,46.03085155
2299903.5,287621.0937,Newby Mountain,1.96532821,-117.9001476,46.09225532
2334625.037,302108.5178,Meadow Creek,8.19512027,-117.7613922,46.12873989
2324841.472,298559.5977,Middle Point Ridge,5.24675049,-117.8004363,46.11993817
2386924.35,294489.6688,Melton Fork,5.29292542,-117.5563807,46.10269542
2375559.462,305635.7151,Mount Misery,15.74267288,-117.5995385,46.13439454
2430153.213,287819.7132,Wenatchee,8.57782449,-117.3871308,46.07986772
2422344.631,281935.9572,West Wenatchee,5.59709068,-117.4187836,46.06458568
2384896.533,280290.5242,Melton Creek,3.54405195,-117.5664508,46.06399121
2278163.962,255835.9686,Paradise Ridge,3.78401222,-117.9897775,46.00706736
2276040,254018.9453,Paradise Creek,1.20510461,-117.9983587,46.00227205
2376141.365,264959.4325,Packer's,5.02084643,-117.6031361,46.02286455
2348685.978,316239.6601,Panjab,4.32346334,-117.7039933,46.1661153
2351061.468,321394.7697,Rattlesnake,5.4864866,-117.6938999,46.18001192
2437619.071,316734.9329,Red Hill Gulch,3.69629181,-117.3531894,46.15828732
2304309.25,294391.6249,Wolf Fork,5.13252913,-117.8819062,46.11041245
2356021.308,277353.5604,Smooth Ridge,13.52842776,-117.6805454,46.0588296
2318414.128,283138.5106,Wildcat/Cavalier,2.70864817,-117.8278279,46.07827348
2378718.133,321665.351,Tucannon River,3.89471373,-117.584751,46.17800342
2316309.622,265659.0139,Sawtooth,4.97008121,-117.8384398,46.03056186
2346283.949,307273.9955,Turkey Creek,3.7608456,-117.7147171,46.14177718
2330327.668,284769.7615,West Butte,5.97778869,-117.7806887,46.0816279
2436484.085,323335.7965,South Asotin Creek,1.95052054,-117.356627,46.17649851
2331337.111,257737.7109,Slick Ear,1.24336462,-117.7803853,46.00744642
2364340.579,284596.6607,Yearling Ridge,2.45562261,-117.6467643,46.07785935
1336430.179,1117660.417,Finney Peak,2.02411725,-121.7506209,48.39098686
1324242.976,1090077.724,Mt. Higgins - Myrtle Lake,3.56006582,-121.7988825,48.31488048
1452566.313,1155292.5,Bear Lake,1.36276178,-121.2743891,48.4981682
1437539.844,1130188.338,Enjar Lake,2.41994256,-121.3352335,48.42897192
1408419.429,1174534.844,Helen Buttes,2.43874451,-121.4573255,48.54955471
1468925.018,1157919.618,Hidden Lake,3.23492255,-121.2070533,48.50578627
1446705.455,1173181.524,Lookout Mt,4.18687964,-121.2992954,48.54701532
1397528.763,1163489.611,Rocky Creek,2.40221914,-121.5016818,48.5189267
1380535.519,1167277.322,Sauk Mountain,3.94940047,-121.5719668,48.52869086
1501069.407,1134954.858,Middle Fork Cascade River,3.36803586,-121.0738396,48.44358559
1491476.272,1122566.896,South Fork Cascade River,5.61309426,-121.1129467,48.40944762
1530489.375,1181829.75,Fisher Creek,8.49342749,-120.9538002,48.57253033
1562569.618,1183265.63,Easy Pass,4.20561999,-120.8213929,48.57689579
1516665.938,1211122.813,Panther Spur,1.87212241,-121.0116488,48.65254422
1520000.625,1222359.5,Panther Creek,7.82898688,-120.9981553,48.68338312
1571571.036,1233742.625,Cady Pass,8.77235205,-120.7849837,48.71526544
1516991.438,1248893.938,East Bank,8.81500712,-121.0113154,48.75601251
1544432.478,1240784.875,Crater Mountain,2.8295348,-120.8974679,48.73423386
1554310.25,1250251.625,Jackita Ridge,13.84326631,-120.8567422,48.76029381
1520005.75,1240345.938,Little Jack,2.960145,-120.9986044,48.73265149
1471761.625,1277717.75,Big Beaver,15.69220727,-121.1997403,48.83400886
1523596,1307901.25,Hozemeen,2.57807985,-120.9854597,48.91774126
1516768.938,1302826,Desolation,3.77178719,-121.0136921,48.9037232
1446790.188,1297616.188,Little Beaver West,2.17832482,-121.3041804,48.88785394
1464182,1304514.75,Little Beaver,10.40619504,-121.232218,48.90721071
1525021.25,1297192.5,Lightning Creek,3.48689523,-120.9792667,48.88843673
1523124.312,1316683.812,Willow Lake,3.85621204,-120.9876455,48.9417858
1505554.625,1252905.938,West Shore,3.01264431,-121.058811,48.76678911
1419790.687,1299644.875,Brush Creek,2.54618787,-121.4164046,48.8926033
1427010.562,1326821.5,Chilliwack North,5.53478323,-121.3876886,48.96725366
1420508.625,1310233.688,Chilliwack,2.57740294,-121.4139324,48.92162453
1410883.125,1300429.125,Hannegan,6.44663099,-121.4534394,48.8944619
1412449.25,1310733.5,Copper Ridge,13.13956955,-121.4474487,48.92273285
1384820.167,1301264.944,Hannegan Pass,3.76783442,-121.5617344,48.89583905
1323045.934,1330383.082,Canyon Ridge,8.35687738,-121.8203226,48.97302157
1330473.282,1330849.392,Boundary Way,2.61850249,-121.7894607,48.97463493
1309680.861,1266399.009,Heliotrope Ridge,2.7999854,-121.8712856,48.79718126
1346194.642,1285918.929,Chain Lakes,5.12713122,-121.7211719,48.85228206
1314150.48,1311244.239,Church Mountain,3.26288906,-121.8559535,48.92020074
1322810.148,1285913.487,Cougar Divide,2.70219128,-121.8182118,48.85123621
1329075.959,1320884.875,Damfino Lakes,2.46894991,-121.7945926,48.94728668
1326862.265,1311781.58,High Divide,9.88102164,-121.8031704,48.92225898
1358866.505,1281045.751,Lake Ann,4.61736789,-121.6682855,48.83946201
1311794.568,1268747.438,Glacier View Loop,2.67142488,-121.8626918,48.80371305
1370460.467,1294888.622,Nooksack Cirque,4.60555358,-121.6209996,48.87783295
1369725.078,1321111.207,Lone Jack,1.7867432,-121.6256067,48.94961429
1344933.492,1277947.139,Ptarmigan Ridge,3.02275333,-121.7258913,48.8303969
1353991.58,1320276.343,Tomyhoi Peak,4.98594685,-121.6909686,48.94669539
1373001.408,1327499.979,Silesia Creek,3.96508261,-121.6123593,48.96723641
1315836.311,1290108.048,Skyline Divide,4.04863276,-121.8474482,48.8624003
1354328.831,1265803.522,Swift Creek,6.94866435,-121.6861606,48.79753289
1361146.251,1323917.506,Tomyhoi Lake,3.33295221,-121.6614464,48.95695838
1337235.723,1289817.823,Wells Creek,3.1698547,-121.758608,48.8625737
1364846.033,1286881.246,White Salmon,1.23235153,-121.6438283,48.85568327
1355294.159,1286392.212,Wild Goose,1.16108478,-121.6834395,48.85395806
1367394.494,1322574.069,Winchester Mt,1.32255443,-121.6353841,48.95352869
1357263.883,1320937.79,Yellow Aster Butte,1.90521291,-121.6774053,48.94864121
1304616.299,1234157.195,Bell Pass,4.83098669,-121.8899244,48.70863709
1361402.152,1230230.245,Baker Lake,12.14573266,-121.6546789,48.70039053
1341443.613,1246819.127,Boulder Ridge,2.89118302,-121.7383403,48.74499648
1298431.268,1234323.44,Elbow Lake,7.72474395,-121.915532,48.70879112
1319023.752,1235585.418,Park Butte,3.55163198,-121.8304012,48.71322926
1303516.224,1240129.816,Ridley Creek,3.49732138,-121.8949139,48.7249417
1323933.065,1236868.071,Scott Paul,5.94685793,-121.8101711,48.71696734
1373141.32,1218889.284,Watson Lakes,2.26578275,-121.6054461,48.66978815
1495950.145,1236746.313,Diablo Lake,3.33750364,-121.0980987,48.72233354
1486918.25,1229565.937,Pyramid Lake,1.72041614,-121.1352502,48.70247198
1488154.25,1240948.25,Sourdough,7.36568858,-121.1305118,48.73367683
1442313.455,1218714.25,Thornton Lakes,3.35449985,-121.319368,48.67162064
1477220.25,1243254.375,Stetattle Creek,4.63765495,-121.1758687,48.73974548
1730439.923,975646.7268,East Fork Mitchell Road,3.49520761,-120.1323335,48.00785739
1720027.1,978354.6082,Mitchell-Gold Ridge,3.57039547,-120.1748147,48.01540394
1729113.926,978152.0871,Mitchell Creek Road,6.86210865,-120.137702,48.01474038
1751353.942,952902.5777,Bergman Gulch,1.56350585,-120.0474526,47.94522569
1756988.86,948352.7499,Echo South,6.47647875,-120.0245784,47.93266514
1757656.061,952118.3259,Echo North,5.3103625,-120.0217643,47.94297439
1754708.854,951357.4657,Echo Ridge,2.83310408,-120.0338044,47.94093746
1753573.343,950883.4118,Somewhere To Ride,2.01960209,-120.0384474,47.93965653
1753036.863,947467.5312,Whoop-di-doo Spur,1.0053498,-120.0407167,47.93030319
1751066.534,949526.5537,The Shoe,2.59682672,-120.0487038,47.93597754
1966983.248,1266298.091,Antoine,4.06280555,-119.1460045,48.79710216
1990669.311,1289470.308,Big Tree,1.12368569,-119.0460491,48.85940531
2005602.242,1288873.059,Beth Lake,1.88856181,-118.9841229,48.85699987
1972257.653,1258011.49,4th Of July Ridge,6.80359089,-119.1247394,48.77415808
1960564.584,1260473.797,Cabin,2.15526151,-119.1730184,48.78145016
1973428.085,1269995.503,Bonaparte Mountain,3.34534334,-119.1190202,48.80692192
1986073.714,1266479.645,Pipsissewa,2.23692715,-119.0668557,48.79667558
1940420.914,1297801.798,Ton Atv 317,1.82677833,-119.2540538,48.88457603
1937887.437,1295814.059,Ton Atv 318,1.61058609,-119.2647031,48.87924174
1930853.651,1289664.536,Ton Atv 319,1.85294116,-119.2942978,48.86269914
1976589.387,1265461.289,South Side,3.58058797,-119.1062454,48.7943522
1938622.87,1300705.606,Ton Atv 324,2.20158045,-119.2613307,48.89260561
2021330.221,1279281.257,Virginia Lilly,3.21865152,-118.9196511,48.82988824
2022807.606,1221309.685,Fir Mountain,1.91887348,-118.9183455,48.67104638
2029845.349,1230901.321,Maple Ridge,2.85987817,-118.8884334,48.69692516
1799176.691,1217473.088,Angel Pass,2.19812631,-119.8433923,48.66922918
1775738.192,1208816.708,Bernhardt Mine,1.98028117,-119.9405808,48.64601187
1767986.785,1176869.694,Beaver Meadows,1.83512459,-119.9735057,48.55864186
1758154.25,1156692.789,Blue Buck,9.51011511,-120.0145969,48.50353842
1773161.502,1173513.413,Golden Stairway,5.8692474,-119.952246,48.54935072
1721489.648,1206425.196,Falls Creek Falls,1.00230284,-120.1648827,48.64030335
1782237.841,1217967.426,Honeymoon Pass,2.93955059,-119.9134309,48.67094895
1775851.909,1215132.017,Freezeout Ridge,2.08765044,-119.9399253,48.66330916
1792224.773,1157498.275,Granite Mountain,4.31987408,-119.8741114,48.50508761
1791815.859,1210791.204,Clark Ridge,3.96270875,-119.8740536,48.65108967
1679756.522,1232727.351,Goat Creek,3.80471775,-120.3371625,48.71271382
1682694.995,1245952.37,Copper Glance,1.62093979,-120.3248779,48.74892237
1729637.56,1194167.934,First Butte,2.54064401,-120.1314403,48.60662615
1652828.769,1153686.376,Milton Mountain,4.95998771,-120.4488354,48.49628325
1797348.053,1219474.253,Mutton Ridge,1.44049907,-119.8508868,48.67475229
1779925.264,1208143.387,North Summit,4.82714507,-119.9232924,48.64408482
1774661.04,1136811.902,Middle Fork Beaver Creek,3.54246731,-119.94712,48.44877327
1797970.327,1197825.947,Muckamuck,1.57944464,-119.849052,48.61543717
1663763.504,1206821.222,Goat Peak Lookout,1.68256852,-120.4034927,48.64182089
1760439.03,1170732.127,Pearrygin Creek,5.21185177,-120.0048142,48.54196169
1674775.023,1148579.222,Wolf Creek,12.08528794,-120.3584074,48.4822176
1762450.375,1182792.375,South Fork Slate,3.85229989,-119.9961982,48.57496611
1749759.657,1219177.24,South Twentymile,6.04141672,-120.0477278,48.67484882
1781765.95,1165047.601,Shrew Creek,3.42714909,-119.9170003,48.52598923
1798677.112,1191276.529,Tunnel,3.91699405,-119.8463562,48.59747982
1836604.518,1187144.003,Schalow,1.75419924,-119.6898945,48.58519516
1778763.351,1221050.135,Tiffany Lake,6.57305398,-119.9277083,48.67946316
1795296.25,1309365.437,Albert Camp,8.46436099,-119.8563392,48.92100515
1756000.25,1308232.937,Basin Creek,5.51966752,-120.0196726,48.91867039
1702633.125,1328792.938,Beaver Creek,3.77988487,-120.2411662,48.97566181
1670987.25,1270943.187,Billy Goat,2.6091728,-120.3732063,48.81743525
1630182.75,1230532.812,Beauty Creek,2.27372045,-120.5423559,48.70680615
1799329.483,1316529.066,14 Mile Trail,3.02887475,-119.839329,48.94053229
1631048.423,1191757.169,Early Winters,3.41569666,-120.5386944,48.60058665
1772998.684,1304882.625,Clutch Creek,3.60914019,-119.949132,48.90919058
1784088.5,1261507.25,Crosby,3.56739854,-119.9044172,48.7901716
1785567.5,1309512.688,Deer Park,2.50162035,-119.8967644,48.92161902
1742747.321,1296964.813,Fire Creek,4.13099453,-120.0749986,48.88801825
1788695.25,1293872.125,Four Point,1.78612546,-119.8842736,48.87871787
1731388.438,1296329.062,Coleman Ridge,13.32264734,-120.1221863,48.88643539
1665839.25,1302357.75,East Fork Pasayten,10.89802711,-120.3943835,48.90349688
1687059,1285340.5,Eightmile,10.81541502,-120.3064013,48.8567792
1679466.375,1288947.812,Diamond Jack,6.86945552,-120.3378852,48.86670608
1669178.187,1261686.625,Drake Creek,1.84730007,-120.3807676,48.7920891
1647114.188,1295580.437,Hidden Lakes,22.19051047,-120.4721855,48.88497852
1646594.563,1321860,Dean Creek,3.08642963,-120.4743079,48.95695188
1634717.187,1197963.5,Driveway Butte,4.14687691,-120.5235487,48.61759265
1708043.375,1258882.625,Crystal Lake,8.22012636,-120.2196921,48.78413918
1779983.5,1267458.375,Hilltop,3.89538592,-119.9212526,48.80655519
1603662.625,1329134.875,Chuchuwanteen,4.686827,-120.6529078,48.97678023
1589722.625,1278271.25,Holman Creek,1.69017416,-120.7103379,48.83738874
1753589.942,1293476.634,Cathedral Driveway,1.72740427,-120.0300541,48.8782964
1695723.479,1255679.244,Falls Creek,6.66225901,-120.2707955,48.7754739
1693361.167,1248752.853,Eightmile Ridge,5.45554447,-120.2806652,48.75652022
1795997.463,1325027.855,Goodenough Trail,1.67077216,-119.8528912,48.96388246
1707501.562,1278367.437,Lake Creek,11.27665521,-120.2216529,48.83751312
1807124.579,1325075.692,Jeep Trail,5.04726143,-119.8066106,48.96375452
1805261.596,1312882.384,Johnny Beall Trail,2.97302027,-119.8147995,48.93040687
1747503.625,1248802.187,North Fork Twentymile,8.60073289,-120.05637,48.7560321
1743758.125,1272800.062,Little Andrews,8.5638006,-120.071346,48.82181939
1672710.813,1291722.688,Larch Creek,16.34846899,-120.3659112,48.87434081
1669926.625,1306517.5,Mccall Gulch,2.2157414,-120.377376,48.91487326
1660512.125,1300142.25,Middle Mountain,2.50626527,-120.4165245,48.89744658
1623743.125,1291983.062,Lease Creek,6.21829891,-120.5692313,48.87510908
1647920.375,1255093.5,Monument Creek,23.08558352,-120.4689037,48.77408555
1613492.5,1330220.25,Monument 83,3.60366326,-120.6120191,48.97979784
1797472.75,1328775.125,Long Draw,6.44316352,-119.8466262,48.97411115
1704712.437,1302672.125,Peepsight,6.83016162,-120.2328839,48.90410633
1664171.313,1330120.75,Park Pass,2.6372784,-120.4011683,48.97953695
1608132.187,1261701,Robinson Creek,21.58232195,-120.6338371,48.79211299
1584469,1299193.812,Rock Creek,6.91427462,-120.7323917,48.89465239
1764689.25,1245076.813,Smarty Creek,7.56724355,-119.9852776,48.74554197
1773836,1278231.375,Wildhorse,2.09738199,-119.9464303,48.83618233
1739681.75,1319644.125,Tungsten,5.82105343,-120.0872374,48.9501748
1673079.5,1326636.875,Sheep Lake,1.8899928,-120.3641307,48.96995971
1632592.915,1303717.062,Tatoosh Buttes,9.13663677,-120.5325056,48.90726193
1645604.657,1303696.5,Stub Creek,5.58899345,-120.4784453,48.90720809
1583455.063,1326404.313,The Parks,2.29552958,-120.7369428,48.96916555
1592318.188,1260065.875,West Fork Pasayten,13.9936487,-120.6993776,48.78754281
1590975.515,1208376.75,West Fork Methow,7.91593788,-120.704388,48.64594573
1604559,1223680.875,Trout Creek,3.15462957,-120.6483535,48.68795201
1760512.799,1301318.275,Windy Creek,4.95228798,-120.0011021,48.89965638
1701415.492,1317432.388,Spanish Creek,4.13472956,-120.2463837,48.94456031
1768097.75,1316009.062,Windy Peak,10.88971041,-119.9691833,48.93975422
1801366.698,1318415.441,Snowshoe Mtn Trail,2.83723592,-119.8307933,48.94565126
1669266.438,1333709.313,Sheep Mountain,1.9163027,-120.3799473,48.98934516
1672905.408,1035498.97,Angel Staircase,1.00617367,-120.3668985,48.17238169
1664965.707,1057653.046,Bernice Lake,1.6395108,-120.3993104,48.23312241
1599949.445,1160244.744,Blue Lake,1.78015555,-120.6668693,48.5141449
1701200.708,1029143.287,Bryan Butte,5.45575163,-120.2510597,48.1547771
1581739.828,1070610.306,Devore Creek,9.51731947,-120.7408289,48.26842535
1643531.648,1062962.238,Fish Creek,9.12392484,-120.4872201,48.247713
1691873.52,1033395.973,Foggy Dew (Section 1),4.05955107,-120.2892123,48.16650545
1568515.98,1081386.942,Company Creek,10.25244805,-120.795269,48.2978315
1690799.855,1051175.609,Eagle Lakes,6.53619504,-120.2934197,48.21523477
1654822.565,1088801.194,Eagle Creek,7.32994818,-120.4408173,48.31850115
1673915.673,1065304.912,East Fork Buttermilk,6.05833522,-120.3625468,48.2540531
1661498.937,1027012.985,East Fork Prince Creek,6.96737223,-120.4136671,48.1491705
1631110.126,1168472.841,Cedar Creek,8.8139229,-120.5383927,48.53679805
1694315.243,1040613.147,Foggy Dew Ridge,5.05392042,-120.2791273,48.18626455
1636060.626,1057683.792,Horton Butte,7.9445618,-120.5178667,48.23324825
1621366.264,1139102.342,Crescent Mine,1.20431599,-120.578469,48.4563117
1689856.27,1055044.478,Crater Creek,2.97977929,-120.2972478,48.22584313
1595394.395,1173524.247,Cutthroat Pass,4.67720877,-120.6857812,48.55049787
1525612.149,1123467.963,Flat Creek,1.38067483,-120.9724906,48.41255991
1623810.19,1087120.296,Chelan Summit,2.17079133,-120.5682172,48.3138905
1514072.75,1145426.187,Horseshoe Basin,1.41290065,-121.0205774,48.47252129
1640600.09,1058270.915,Indianhead Basin,3.71718133,-120.4992477,48.23485845
1607058.094,1078739.429,Lakeshore,2.87045507,-120.6369727,48.2908664
1684147.18,1068104.335,Libby Creek,4.9480069,-120.3205389,48.2616677
1624907.482,1124142.725,Louis Lake,3.00485997,-120.5638328,48.4153336
1681833.837,1040581.422,Martin Creek,7.03890908,-120.3302754,48.1862623
1658631.035,1136239.537,Little Bridge,5.7556982,-120.4249859,48.44847042
1680187.674,1027953.111,Navarre Way,1.62437473,-120.3371281,48.1516659
1627521.023,1147230.177,North Creek,5.26858615,-120.55314,48.47859415
1575768.339,1157976.886,Maple Pass,5.19468548,-120.7665494,48.50774971
1594229.885,1135651.824,McAlester Lake,4.74295731,-120.6902096,48.44673135
1652597.695,1070247.188,Oval Lakes,1.55124207,-120.4500059,48.26766523
1632368.137,1072621.27,North Fork Fish Creek,3.0579088,-120.5330374,48.27417655
1658543.216,1051415.252,North Fork Prince Creek,2.18050797,-120.4256768,48.21604885
1666588.705,1079099.692,Oval Peak,8.91013328,-120.3925337,48.29188408
1629303.088,1078121.064,Moore Mountain,2.7495665,-120.5456317,48.28924256
1708815.351,1086340.4,Lookout Ridge,3.55389803,-120.2190398,48.31143941
1706331.706,1039661.824,Pasayten Drive,7.85983029,-120.2298984,48.18355515
1651797.457,1037177.798,Prince Creek Wilderness,7.26965006,-120.4533705,48.17704815
1593271.444,1100767.748,Rainbow Loop Trail,5.77824105,-120.6938037,48.35114605
1580749.756,1126388.827,Rainbow Lake,8.97181134,-120.7456053,48.4212503
1632423.037,1115686.419,Reynolds Creek,6.30055891,-120.5328857,48.3921768
1595298.183,1117350.812,Rainbow Creek,4.76394503,-120.6856327,48.3965962
1618648.208,1106078.969,Reynolds Peak,1.68993848,-120.5895103,48.3658236
1674457.479,1010021.54,Safety Harbor Creek,4.6334378,-120.3607242,48.10255594
1614689.883,1087243.34,Purple Creek,6.35500138,-120.6056829,48.3142001
1666450.444,1022479.876,Uno Peak,5.68128743,-120.3934156,48.1367314
1540805,1156715.5,North Fork Bridge Creek,6.41171506,-120.9106764,48.50388272
1649560.161,1119366.686,Twisp River,13.28483572,-120.4623766,48.402259
1651457.993,1065692.898,Summit Trail Wilderness,16.12691131,-120.4546943,48.25518755
1538685.36,1097694,West Fork Agnes Creek,7.73429826,-120.9181251,48.34214383
1632929.783,1107370.319,Toni Basin,4.32995251,-120.5307876,48.3693917
1670797.455,1029153.617,Summit Trail ORV,9.2328712,-120.3755755,48.1550026
1644058.663,1180686.23,Varden Lake,3.22177675,-120.4849659,48.57026295
1590560.564,1148093.759,Stilleto Spur,2.10044808,-120.7054543,48.48079415
1541517.337,1081365.511,Swamp Creek,2.17939051,-120.9061401,48.29744385
1649670.95,1097002.225,South Fork War Creek,2.70886568,-120.4619651,48.34098105
1645261.811,1113551.55,Williams Lake,4.42236154,-120.4800694,48.3863303
1650250.416,1125879.42,Slate Lake,5.56908756,-120.4595226,48.4201022
1651228.213,1108674.499,War Creek Ridge,4.20603719,-120.4555377,48.37296076
1652575.195,1055900.89,Surprise Lake,1.98251003,-120.4501355,48.2283535
1677154.521,1031781.27,Sunrise Lake,1.11181764,-120.3495196,48.16217297
1633564.936,1067214.101,Two Point,1.14505373,-120.5281169,48.25936127
1593245.119,1146185.688,Stiletto Peak,2.64366284,-120.694372,48.47558518
1580742.425,967712.1369,Basalt Ridge,7.43421558,-120.7436181,47.98643392
1594357.465,1015289.572,45 Mile Drive,4.32783262,-120.6884996,48.11692429
1577394.299,1047236.38,10 Mile Creek,1.12252828,-120.75835,48.20433817
1603322.741,937893.6107,Alder Ridge ORV,9.45489818,-120.6512017,47.90486439
1637666.805,914064.3544,Billy Ridge,5.45766347,-120.5111952,47.83964886
1633242.171,919081.5722,Billy Creek,5.66948423,-120.5292162,47.8533974
1596410.347,990304.7223,Anthem Creek,1.84118208,-120.679865,48.04846655
1583297.821,966818.1603,Basalt Pass,1.06894961,-120.7331751,47.984005
1658131.775,957071.1399,Angle Peak,3.05978899,-120.4277182,47.95750055
1546105,1026311,Red Mountain,3.17564329,-120.8861938,48.1466457
1508974.658,894986.6245,Bygone Byways,1.28710696,-121.034589,47.78613754
1489370.182,951324.606,Cady Ridge,4.89206972,-121.1161092,47.9401563
1488450.624,946067.4966,Cady Creek,4.64018261,-121.1196914,47.92572855
1537612.334,989834.257,Boulder Pass,11.36335309,-120.9201738,48.0465643
1537728.576,1016244.638,Buck Creek,7.50712237,-120.9202739,48.1189427
1561461.846,1003609.181,Carne Mountain,2.49317404,-120.8229297,48.0846224
1610499.824,948064.2021,Blue Creek,4.25698951,-120.6220108,47.93277375
1537404.982,1048454.025,Cloudy Peak Route,1.02221182,-120.922304,48.20720203
1541885.144,1043811.332,Crown Mine,1.09542907,-120.9038401,48.19454416
1571159.812,917060.0861,Dirty Face Mountain,4.15557259,-120.7819993,47.84752105
1496699.285,923021.9242,Heather Lake,2.83787921,-121.0853587,47.8627394
1564862.668,1048424.386,Hart & Lyman Lake,8.69222509,-120.8097401,48.20746996
1622367.805,921728.4675,Cougar Ridge,6.17619302,-120.5735092,47.8606328
1584613.418,981087.1437,Garland Peak,9.86478845,-120.7279729,48.0231215
1587310.152,1005569.493,Entiat River,13.80649807,-120.7172314,48.09023715
1549570.322,1010930.898,Chiwawa River,5.30857332,-120.8717072,48.10454375
1588186.486,992845.1083,Cow Creek Meadows,3.19922236,-120.7135059,48.0553724
1591168.369,952812.8118,Chickamin Creek ORV,5.29012906,-120.7008999,47.94568
1607967.063,1022743.536,Emerald Park,11.61819287,-120.6328532,48.13742725
1666877.381,947926.423,Devils Backbone,13.12078701,-120.3920852,47.93240994
1602063.773,992005.3968,Duncan Hill,11.20728705,-120.6567719,48.0531604
1572261.03,1019703.514,Ice Lakes,1.48750889,-120.7789937,48.1288409
1611618.473,925735.3821,Hi Yu,2.71261671,-120.6173131,47.87157955
1614313.523,931806.8642,Cougar Mountain,2.49677564,-120.6063678,47.88823096
1649781.783,956005.5322,Four Mile Ridge,4.11435059,-120.4617903,47.95459605
1562584.51,1051862.715,Holden Lake,2.97356193,-120.8191365,48.21686695
1572796.959,1014372.859,Ice Creek,4.12670373,-120.7767233,48.11423785
1596710.771,964398.2939,Chickamin ORV Tie,5.86428512,-120.6783976,47.97746886
1616228.672,1041678.336,Domke Lake Nrt,2.57102628,-120.5991265,48.18934865
1582590.881,1021005.88,Cool Creek,4.04670005,-120.7367249,48.13250245
1617513.688,938974.0487,Hunters,1.10829331,-120.5933621,47.90788595
1573066.186,1037144.125,Copper Basin,3.11304188,-120.7759476,48.17664225
1620258.608,1040650.38,Domke Mountain Lookout,2.59196397,-120.5826067,48.18654445
1606099.193,999926.776,Fern Lake,1.03545253,-120.6403343,48.07489001
1557689.661,1059084.994,Holden Pass,1.45433672,-120.8393341,48.23660159
1582227.543,1037655.701,Dole Lakes,2.13320333,-120.7384183,48.17812599
1509408.647,913208.3097,Lake Minotuar,1.29686178,-121.033325,47.83608909
1618397.883,926331.5356,Jimmy Creek,2.25878698,-120.5896991,47.8732379
1544723.709,1051627.542,North Star Basin Traverse,2.57529462,-120.8923656,48.21600178
1543048.432,898074.0007,Merrit Lake,1.92565508,-120.896073,47.7951508
1576619.243,900086.8814,Nason Ridge,16.78691293,-120.7595424,47.8010504
1510985.662,928343.8705,Little Wenatchee Gorge,1.30886118,-121.0273172,47.8776019
1513509.94,885997.9693,Lanham Lake,1.54196078,-121.0159049,47.76158295
1506164.831,938664.9058,Little Wenatchee Ridge,2.77608007,-121.047249,47.90579935
1496448.118,954806.8618,Little Wenatchee River,6.14457677,-121.0873456,47.94984795
1544840.185,987749.4616,Little Giant,7.33874882,-120.890591,48.04095265
1523501.276,955946.8051,Mount David,4.94629814,-120.9770085,47.9534724
1642906.053,900231.5888,Lower Mad River,14.59693926,-120.4898725,47.8017343
1608695.883,955894.3956,North Tommy,6.62084772,-120.6294202,47.95422635
1608969.282,935442.2831,Lost Lake,3.80214677,-120.6281692,47.8981732
1558810.768,1021194.062,Leroy Creek High Route,1.14339923,-120.8340773,48.13278235
1670465.242,960499.3629,Lone Peak,6.97546816,-120.3773732,47.96685454
1627194.566,945258.4375,Middle Tommy,7.86276843,-120.5539163,47.92513485
1603567.699,954679.1395,Mad River (Upper),11.73362761,-120.6503336,47.95087075
1587458.872,944649.0086,Minnow Ridge Orv,4.86252028,-120.7159409,47.92327825
1593935.715,929923.708,Lower Chiwawa ORV,8.49705316,-120.6893868,47.88296485
1580452.592,1045709.336,Monkey Bear Falls,2.0224838,-120.7457936,48.20018044
1570042.417,967444.7652,Old Gib,10.36103,-120.7872963,47.98560245
1589521.507,1041285.716,Lower Railroad Creek Wilderness,8.10233329,-120.7085723,48.18813
1587543.676,997347.2233,Larch Lakes,2.40387914,-120.716184,48.06770578
1573508.508,1044410.615,Miner's Goat,1.10489154,-120.7742388,48.19655885
1603753.232,1025986.9,Mirror Lake,2.51873171,-120.6501304,48.14629463
1571779.381,1044821.162,Miner's Interp,1.11262397,-120.781332,48.19766717
1582218.514,957949.766,Minnow Creek,1.5271077,-120.7374721,47.95969075
1608008.339,1003650.904,North Fork Entiat River,4.48910392,-120.6325528,48.08510505
1687063.601,957311.4787,North Fork 25 Mile Creek,2.12349242,-120.3096676,47.95802725
1527692.347,895137.3765,Rock Mountain,2.3636869,-120.9584675,47.7868737
1566398.499,898017.6724,Round Mountain,1.40346589,-120.8010902,47.79527925
1499963.096,943148.7841,Poe Mountain,2.06251435,-121.0726608,47.91796774
1630907.812,995836.0987,Pyramid Mountain,15.77678032,-120.5388763,48.06375664
1599202.284,957325.605,Pond Camp,4.12904744,-120.6681663,47.9580998
1577473.769,1004190.214,Pomas Creek,4.83878445,-120.7574483,48.08637615
1626851.054,998838.1558,Pyramid View Point,2.79931999,-120.5554707,48.07197722
1626169.894,989906.8864,Pyramid Creek,3.87627126,-120.5582291,48.04749935
1557056.77,1019383.949,Phelps Creek,7.22745676,-120.8412256,48.12780135
1620037.05,994252.8819,Pugh Ridge,7.67250573,-120.5833138,48.0593947
1581518.253,970675.0517,Rock Creek Tie,2.55452938,-120.7404878,47.99456075
1683712.866,952155.1558,Pot Peak,7.29710157,-120.3233866,47.94391658
1534695.055,1056350.278,South Fork Agnes Creek,4.70484425,-120.9335913,48.2287992
1541993.728,1041252.652,Upper Lyman Lake,1.98850405,-120.9033415,48.1875342
1522879.866,899870.7783,Snowy Creek,5.59127407,-120.9781569,47.79976928
1561743.342,958095.743,Schaefer Lake,4.36534082,-120.8210208,47.95989216
1527422.854,972240.2901,White River,14.11938155,-120.9613979,47.99819085
1546125.935,945804.9568,Twin Lakes,3.21605181,-120.884501,47.92601523
1633496.942,930442.0713,Tyee Ridge,8.50595489,-120.5281953,47.88453515
1633746.978,942367.4714,South Tommy,4.79921734,-120.5271932,47.9172206
1698286.143,887018.2351,Steliko Ridge,5.81788493,-120.2647323,47.76528055
1631836.045,958560.78,Silver Falls National Recreation,1.56320977,-120.5350136,47.96160025
1600740.093,973202.7427,Shetipo,3.69082063,-120.6620247,48.00162265
1546052.516,1038198.643,Spider Gap,2.1956628,-120.8866473,48.17922103
1620006.624,967840.4909,Three Creeks,8.07799404,-120.5833241,47.98700871
1632752.057,955077.1072,Silver Falls Barrier-free,1.24359535,-120.5312702,47.95205355
1577604.437,1029975.34,Wilson Creek,1.80308109,-120.7572578,48.15703939
1662833.956,725766.1838,Beehive ORV,1.85346917,-120.4096138,47.32343977
1564279.281,854862.929,Badlands,3.15305765,-120.8090229,47.6769681
1527458.042,820450.9614,Blackjack Ridge,6.95261299,-120.957658,47.58214835
1598171.5,832071.5,Leavenworth Ski Hill,1.96706409,-120.6712625,47.61477572
1568202.197,833741.7772,Icicle Ridge,26.10091228,-120.7927827,47.61911265
1506785.327,851474.7822,Icicle Creek,11.69299933,-121.0422763,47.66683035
1661202.168,722003.7986,Devil's Spur ORV,2.63295745,-120.4162092,47.31312981
1640383.899,737306.9323,Devil's Gulch ORV,10.09997457,-120.5001322,47.35511469
1509895.828,837228.4753,French Ridge,7.02666398,-121.0292664,47.62783745
1548077.216,766596.0289,Fourth Creek,6.92087236,-120.8730876,47.43481209
1557634.759,788982.0936,Colchuck Lake,2.3894232,-120.8348559,47.4962986
1548908.894,807339.7439,Eightmile-Trout Creek,7.38239947,-120.8705006,47.54651585
1510476.678,804340.7369,Fish Eagle Pass,1.29273295,-121.0260217,47.537696
1556870.69,801011.2505,Eightmile Lake,3.91565688,-120.8381551,47.5292656
1568556.09,821112.5618,Fourth Of July,3.6008473,-120.7911589,47.58449672
1601813.728,836616.2422,Freund Canyon,6.3372807,-120.6565334,47.62725457
1543941.646,830367.4267,Icicle Gorge Upper Loop,1.10953508,-120.8910741,47.60957459
1571052.482,848907.8205,Hatchery Creek,4.9367802,-120.7814461,47.66071385
1578708.375,858197.2142,Chiwaukum Creek,12.84005841,-120.7505021,47.68624805
1548568.782,866222.5861,Glacier Creek,2.59265824,-120.8730051,47.7079198
1596677.8,776138.8944,Ingalls Creek,13.77038873,-120.6768096,47.46143756
1529234.469,805338.7667,Jack Creek,11.13420479,-120.9501115,47.54075005
1503798.512,824971.475,Klonaqua Lakes,1.73115029,-121.0536415,47.59412424
1538406.722,814440.2558,Jack Ridge,3.65923156,-120.9131721,47.56583725
1533179.982,830087.1882,Jack Pine,1.64616919,-120.9346909,47.60865198
1549511.331,850958.5653,Index Creek,2.57004858,-120.8688874,47.6660918
1558025.535,888376.8723,Lake Ethel,2.04681138,-120.8349827,47.7687616
1543168.63,829714.3062,Icicle Gorge,3.48364302,-120.8941944,47.6077737
1606756.298,754793.7537,Magnet Creek,2.69088722,-120.6359198,47.40297565
1643354.426,735268.0012,Mission Ridge,8.46581958,-120.4881492,47.34952426
1498604.961,838904.8848,Leland Creek,3.25715922,-121.0750992,47.63221605
1498404.929,850489.7457,Lorraine Ridge,2.89935172,-121.0762536,47.6639674
1546845.378,877068.1799,Loch Eileen,1.01497887,-120.8802162,47.7376255
1550705.756,870598.0716,North Fork Chiwaukum,5.75791988,-120.8644088,47.71994064
1545869.534,874118.4874,McCue Ridge,2.97929981,-120.884123,47.72952735
1632544.37,754341.3873,Red Hill ORV,7.39858331,-120.5317874,47.40181065
1636279.435,752448.2104,Red Hill Spur ORV,3.50517764,-120.5167041,47.39662366
1634377.172,758270.8784,Red Devil ORV,6.14917846,-120.5243917,47.41258509
1556745.371,852249.1296,Painter Creek,4.51555121,-120.8395551,47.66971845
1528013.901,863339.8135,Wildhorse Creek,10.41616057,-120.9564114,47.6997217
1525099.213,878910.1555,White Pine Creek,15.63209654,-120.9686218,47.74235364
1626823.324,743594.4325,Tronson Ridge ORV,7.62785686,-120.5548582,47.37233915
1630266.715,725382.5336,Tronsen Meadow,1.43417523,-120.5409237,47.32241596
1660243.896,717122.6312,Squilchuck,2.0327428,-120.4200922,47.29975033
1575741.58,762519.0097,Three Brothers Mountain,1.91618117,-120.7612592,47.42394015
1520387.474,796083.177,Solomon Creek Trail,3.24730866,-120.9856961,47.51523391
1513181.342,818579.7196,Snowall-Cradle Lake,8.22152338,-121.0154497,47.57677745
1528253.143,794703.7696,Van Epps,2.59238938,-120.9538365,47.51158095
1502935.38,847607.3108,Square Lake,4.94621166,-121.0577879,47.65615565
1559290.585,794788.848,Stuart Lake,4.37551724,-120.8282558,47.512236
1585595.262,792776.5765,Snow Lakes,10.49428091,-120.7217985,47.5069711
1545606.931,837943.5355,Chatter Creek,5.10204973,-120.8844735,47.63036455
1587635.499,824623.7096,Tumwater Penstock,1.05730371,-120.7138935,47.59428909
1546972.76,879094.7324,Upper Roaring Creek,2.39320678,-120.8797383,47.743182
1160897.553,181274.2111,Bells Mountain Trail,6.86428923,-122.3807038,45.81475018
1189248.893,159674.6278,Tarbell Trail,2.94697301,-122.2676484,45.75733167
1191363.446,129848.1425,Jones Creek,2.87959347,-122.2567642,45.6756893
1187107.79,135992.5029,Mtn View,1.13916895,-122.2739479,45.69227337
2332818.754,301657.9778,Skyline,19.20457137,-117.7685736,46.12767684
2333563.251,294790.6504,Goose Corral,4.28083302,-117.7665775,46.10878516
2315744.951,282998.6507,Touchet Corral,2.93706729,-117.8383584,46.0781376
2388647.197,357816.4533,Wood Road 1,3.22122414,-117.5402278,46.27605749
2391076.425,359485.2024,Sawmill,2.2425982,-117.5303792,46.2803801
2389180.877,357889.8713,Pond,1.11766405,-117.5381079,46.27620376
2438431.108,308092.3966,Cloverland,3.40827865,-117.3513485,46.13451694
2439634.868,300554.2484,Anatone,7.90198567,-117.347792,46.11372976
2411887.641,307156.1547,Asotin Road 44 and 43,7.00035624,-117.4561154,46.13480807
2401136.814,309320.5475,Kelly Camp Spur,3.1309171,-117.4981673,46.14186871
1670799.958,771009.2453,Main Sage Hills Trail,4.36102355,-120.377211,47.44744454
1663619.65,770754.1432,Apricot Crisp,1.04801361,-120.4062302,47.44677222
1666272.15,773459.967,Homestead Trail,2.07669753,-120.3954962,47.45418091
1664111.411,774053.5166,Main Horse Lake Ranch Road Trail,2.00396869,-120.4042267,47.45581561
1663049.479,777770.106,Northern Horse Lake Trail,1.60591517,-120.4085015,47.4660078
1658729.927,768655.7258,Western Horse Lake Trail,1.38786225,-120.4259989,47.44103378
1681608.261,752771.3732,Saddle Rock Main Trail,1.25580587,-120.3336866,47.39739176
1677526.567,757325.9253,Jacobson Biking Trail,1.03856435,-120.3501317,47.40990043
1090754.086,1338751.929,Coast Millienium Trail,1.35021105,-122.787283,48.98138796
1270696.989,1274886.275,Old Growth Trail,1.08895188,-122.0335647,48.818458
1261900.825,1279829.911,Lake Trail Loop,1.80675157,-122.0704491,48.83152184
1268391.905,1277381.913,Main Trail,3.50248016,-122.0433261,48.82516907
825161.3183,1002885.673,Aurora Creek Primitive Trail,2.68928359,-123.8323501,48.03587992
840070.5959,996111.9549,Aurora Ridge Primitive Trail,3.54183057,-123.7703318,48.01904182
846959.3228,997913.6416,Barnes Creek Primitive Trail,2.74706916,-123.7425177,48.02475454
854180.5631,974127.1805,Appleton Pass Trail,3.08411807,-123.7090878,47.96042768
939347.8332,953446.5844,Badger Valley Primitive Trail,1.76800575,-123.3587357,47.91276528
845072.0933,1002856.466,Barnes Creek Trail,1.32149228,-123.7510534,48.03807649
810522.1998,1003498.612,Aurora Ridge Trail,2.71494658,-123.892222,48.03584854
857497.9431,951351.0062,Cat Peak Primitive Trail,2.48056864,-123.6918027,47.89842384
933644.4542,829023.8801,Black And White Lakes Primitive Trail,1.8494085,-123.3635608,47.5713746
853244.0852,837896.5814,Big Creek Trail,5.43881598,-123.6904276,47.58722321
820888.675,974690.4412,B Loop Campground Trail,1.27521612,-123.8449093,47.95818039
840136.9893,800517.6199,Colonel Bob Trail,1.65143983,-123.7372773,47.48337658
971168.5847,800009.0041,Big Creek Campground Trail,1.13863529,-123.207617,47.49551677
907578.4996,803942.4088,Upper South Fork Skokomish River Trail,5.00231797,-123.4652534,47.50002534
1001460.622,918343.8129,Upper Big Quilcene Trail,5.23374447,-123.1009341,47.82250177
811826.8104,787241.998,Willaby Creek Trail,1.92120828,-123.8493828,47.44377473
938235.4877,783704.5384,872.1,3.87106205,-123.3383714,47.44767381
986405.36,916211.5173,Heather Creek Trail,3.3487154,-123.1618793,47.81528414
991186.1095,938478.781,816,1.48907782,-123.1454744,47.87672253
965319.6414,803697.2925,Mt. Ellinor Trail,1.05085836,-123.2317782,47.50506899
968416.7772,802041.7533,Big Creek Upper Loop,3.42033075,-123.2190248,47.50082656
994106.4916,835072.4003,802,1.63975403,-123.1195946,47.59370492
904549.3692,779862.2906,887.1,2.7746437,-123.4738267,47.43374595
817305.2355,795068.2884,Quinault Loop Trail,1.31047693,-123.8285981,47.46584632
774732.5588,1024393.684,Kloshe Nanitch Trail,3.14267434,-124.042154,48.08874696
715609.8251,952017.4255,Bogachiel River Trail,1.2640827,-124.2695689,47.88309307
936133.4184,776923.2169,873.4,1.4425327,-123.3458724,47.42888762
787467.5628,1016875.592,883.1,10.15523779,-123.9887544,48.06971897
848492.51,980042.4828,Boulder Lake Trail,2.60600881,-123.7332673,47.97598976
616329.3111,1055925.849,Cape Alava Trail,1.6256929,-124.69603,48.15377066
937701.4087,929416.9697,Cameron Pass Trail,2.17889554,-123.3618898,47.84678366
945827.3112,936041.575,Cameron Creek Trail,1.86782673,-123.3297922,47.86573246
885769.4238,1000605.088,Cascade Rock Trail,1.76918606,-123.5845133,48.03638953
751226.0569,949450.0238,South Snyder-Jackson Trail,1.46576718,-124.1241229,47.88063752
864198.9276,981920.858,Boulder Hot Springs Trail,2.15249607,-123.6695188,47.98288019
779681.75,1011168.937,Camp Creek,1.99546389,-124.0195172,48.05314748
847929.3751,973722.2187,Boulder-Appleton Pass way,3.84783155,-123.7345063,47.95861912
856742,960966.6563,Cat Basin-Appleton Pass,2.8488301,-123.6964689,47.92467282
620264.0357,1041532.73,Ericsons Bay Primitive Trail,1.86037292,-124.6768183,48.11495515
826374.916,966339.7999,Deer Lake Trail,1.61337281,-123.8211095,47.93594914
826382.467,958386.1705,High Divide Trail,1.98558254,-123.8197138,47.91417027
835684.7832,952854.2127,Hoh Lake Trail,1.1670049,-123.7808842,47.90008803
828236.1068,942957.1713,Hoh River Trail,3.40077878,-123.8095249,47.87213295
929898.294,868100.686,East Fork Quinault River Trail,1.23363055,-123.3845126,47.67804723
888701.0365,994696.2159,Griff Creek Primitive Trail,1.53565955,-123.5716028,48.02052147
662404.6711,919647.6876,South Coast Beach Route,1.81352959,-124.479427,47.78731707
859992.8158,856737.189,Elip Creek Trail,1.89619712,-123.6661678,47.63957292
914499.1131,975776.1175,Cox Valley Primitive Trail,1.57037579,-123.4633866,47.97141017
899040.4793,891628.8615,Elwha River Trail,1.32621322,-123.5133151,47.73933361
892081.8772,893472.7399,Happy Hollow Trail,1.83492402,-123.5418592,47.74365211
928396.7065,913394.2969,Hayden Pass Trail,7.65728606,-123.3973545,47.8019651
849834.3597,984580.2655,Happy Lake Ridge Trail,1.86028793,-123.7285528,47.98856651
989563.7236,904462.3974,Constance Pass Trail,2.22539944,-123.1474297,47.78338977
895539.5695,823405.027,Graves Creek Primitive Trail,2.30632393,-123.5169296,47.55208948
939934.2218,956202.9993,Elk Mountain Trail,1.24762881,-123.3567536,47.92037327
941320.5543,947150.4162,Grand Valley Trail,1.91558705,-123.3497714,47.89571565
939725.7585,825473.6997,Gladys Divide Primitive Trail,1.00054849,-123.3384257,47.56225131
961284.8395,863794.9285,Duckabush River Trail,2.31355204,-123.2565872,47.66932794
946553.7006,855868.4559,Home-Sweet-Home Trail,1.7468707,-123.3151826,47.64618778
982137.4561,889588.4544,Dosewallips River Trail,1.04417608,-123.1755625,47.74195652
971554.2068,954926.3357,Upper Gray Wolf River Trail,1.59144691,-123.2277242,47.91994365
955164.414,928953.977,Cedar Lake Primitive Trail,1.86466484,-123.2907631,47.84723017
959326.2121,916310.1019,Gray Wolf Pass Trail,3.15868855,-123.2720188,47.81299807
906549.9837,933099.5099,Dodger Point Primitive Trail,3.35003517,-123.4892069,47.85370402
918094.514,993065.4457,Heather Park Trail,1.9338247,-123.4513626,48.01913027
885672.8687,990233.5493,Hurricane Hill Trail,1.53031919,-123.5832513,48.00797659
930896.0508,998208.6761,Heart Of The Forest Trail,2.15020137,-123.3998761,48.03451711
931404.8342,823490.4918,Flapjack Lakes Trail,3.31311505,-123.3718109,47.55599283
936803.3693,812406.1734,Four Stream Trail,1.12151615,-123.348343,47.5261636
910848.2852,979312.8586,Klahhane Ridge Trail,1.79435782,-123.4788211,47.98071958
971931.999,964737.3795,Deer Ridge Trail,1.2369247,-123.2275677,47.94685304
1004777.676,951834.2052,Gold Creek Trail,6.12875885,-123.0919196,47.91454363
945659.2025,796637.8698,Dry Creek,7.83280794,-123.3102504,47.4838353
848054.3491,811603.2449,Fletcher Canyon,2.24481004,-123.7071079,47.51462749
1002430.19,869532.4894,Duckabush Trail,6.76388526,-123.0904672,47.68886847
896931.1382,781452.4284,Church Creek,2.27142906,-123.504829,47.43731078
937721.4677,803702.6445,Copper Creek,2.25908234,-123.3433601,47.50241044
980133.4337,959259.4674,Gray Wolf - Upper Trail,3.11189688,-123.1933673,47.93262061
994201.8567,967236.7271,Gray Wolf - Lower Trail,3.32424538,-123.1371114,47.95577432
990320.5366,828337.2834,Elk Lake Trail,1.55509072,-123.134017,47.57490684
873262.2135,911075.3751,Humes Glacier,1.79922307,-123.6211091,47.78984957
882226.3125,904840,Elwha Basin Trail,2.95171453,-123.5836855,47.77373785
784080.9374,865068.6251,Coal Creek,2.84937168,-123.9752488,47.65363279
955791.625,841308.9999,Hagen Lakes,1.4235633,-123.2756553,47.60719958
931967.5221,811629.8437,Four Stream,1.72426949,-123.3677879,47.52355657
990991.8126,896083.2188,Lake Constance Primitive Trail,1.80667061,-123.1404846,47.7605665
857604.1875,981692.375,Crystal Ridge,1.49963263,-123.6963799,47.98152536
950907.9113,875094.8969,Lacrosse Pass Trail,1.9703437,-123.3002996,47.69928166
924193.5679,994802.0781,Lake Angeles Trail,3.24200468,-123.4267284,48.02450908
860885.8202,831003.1831,Irely Lake Trail,1.03166215,-123.6583706,47.56918464
761610.7433,1020020.247,Kloshe Nanitch,2.96272419,-124.0949562,48.07514743
966573.0115,810574.4333,Jefferson Lake Trail,1.0102581,-123.2276724,47.52402928
987589.231,831871.8943,Jefferson Ridge Trail,1.26477567,-123.1455554,47.58434022
813757.1415,967183.3487,Mink Lake Trail,1.18678986,-123.872672,47.93679207
823626.9651,963508.5165,Little Divide Trail,3.17472632,-123.8318196,47.92787865
930226.8359,857123.4094,O'neil Pass Trail,3.11603788,-123.3815526,47.64800977
741874.7442,966881.4031,North Snyder-Jackson Trail,2.54914071,-124.1654812,47.92717856
869613.223,864705.7125,North Fork Quinault River Trail,1.13044493,-123.6284607,47.66245064
830908.8593,993353.7983,North Fork Sol Duc River Trail,1.03512517,-123.8072521,48.01044272
939179.9219,957378.9546,Obstruction Point-Deer Park Trail,1.78481141,-123.360001,47.92351928
891962.1516,883012.4567,Martins Park Primitive Trail,1.638921,-123.5407071,47.71498844
962841.124,901343.9986,Main Fork Dosewallips River Trail,4.89706527,-123.2555978,47.77233908
940483.1216,810289.7265,North Fork Skokomish River Trail,1.02407684,-123.333152,47.52072867
909937.4832,966606.5994,Lillian River Trail,2.5422612,-123.4805768,47.94582603
899372.8979,943717.5612,Long Ridge Trail,1.98355672,-123.5200675,47.88203633
840323.6208,990996.9965,North Fork Sol Duc River Primitive Trail,2.50445004,-123.7684335,48.00506442
904188.4048,981149.3077,Little River Trail,1.06700587,-123.5062727,47.98505673
818551.812,975460.0151,Lover's Lane Trail,2.7918798,-123.8545692,47.96001576
919283.0115,1037022.724,Olympic Discovery Trail,1.81886421,-123.4532325,48.13963308
849018.2345,1034375.233,Olympic Discovery Trail Adventure Route,1.54707796,-123.7402308,48.12482559
781142.4978,1022449.17,Mt. Muller Loop Trail,12.10065694,-124.0156066,48.084209
983548.6892,971534.4924,Ned Hill,1.03948194,-123.1811482,47.96656243
1008774.309,941162.7853,Little Quilcene Trail,4.12346138,-123.0742147,47.88566967
959578.1072,806716.7868,Mt. Ellinor,2.47784735,-123.2554191,47.51279415
998964.8268,949361.3775,Lower Dungeness Trail,5.59714782,-123.1152709,47.90724403
984796.2763,841923.4585,Lena Lake Trail,4.08693309,-123.1582375,47.61162112
957871.0806,826128.5677,Mildred Lakes,3.30206727,-123.2650749,47.56581185
954947.9229,804096.3092,Mt. Rose,4.35899313,-123.2737698,47.50517009
947726.4375,849196.3126,Mt Hopper,1.39533903,-123.3094648,47.62802434
909766.5,842786.9999,Oneil Creek,2.73913081,-123.4623087,47.60666044
908699.75,830611.7812,Mt Olson Way,1.6290284,-123.464775,47.57319872
809720.6251,939852.9375,Mt Tom Creek,1.01965585,-123.884339,47.86147961
844513.3973,1009984.219,Mt Storm King Trail,1.77534999,-123.754536,48.05753082
977806.9671,933614.446,Royal Basin Trail,2.78600909,-123.1992713,47.86215557
833097.1345,879147.1831,Queets River Trail,2.78152737,-123.7789371,47.69793964
824218.8812,1015472.993,Pyramid Peak Trail,2.3806594,-123.838374,48.07023614
773161.1991,852073.9259,Sam's River Loop Trail,1.12480747,-124.0171558,47.61672037
924000.1341,1018696.754,Peabody Creek Trail,1.6137481,-123.4311449,48.08992874
960355.4101,834975.8151,Putvin Trail,2.62383107,-123.2562707,47.59028804
839429.9886,794731.8252,Pete's Creek Trail,2.33458516,-123.7391735,47.46744919
818716.1171,1020503.856,Pyramid Peak,7.41479538,-123.8617305,48.08337056
873061.4999,849536.25,Rustler Creek,2.87385548,-123.6120518,47.62127463
937496.6876,865840.0937,Ranger Pass Fishers Notch,1.36913363,-123.3533604,47.67261213
636243.4097,956528.5369,Third Beach Trail,1.3999049,-124.5934671,47.88460389
837219.393,966290.8987,Sol Duc River Trail,1.78649962,-123.7769094,47.93705798
858104.3763,876446.998,Skyline Primitive Trail,1.81668564,-123.67704,47.69334881
849279.721,848481.6317,Three Lakes Trail,2.7514461,-123.7082216,47.61577488
895574.5909,813689.7991,South Fork Skokomish River Trail,1.96917047,-123.5152844,47.52548001
926684.451,826572.9559,Six Ridge Primitive Trail,4.69365776,-123.391371,47.56396451
937257.1722,828577.7711,Smith Lake Primitive Trail,1.09539053,-123.348871,47.57051103
946308.7716,875491.5813,West Fork Dosewallips River Trail,1.19336388,-123.3190198,47.69991935
799722.9947,912260.4235,South Fork Hoh River Trail,1.42352681,-123.9201482,47.78473927
981295.602,849485.7528,Upper Lena Lake Trail,2.21784772,-123.1734591,47.63201491
967373.7506,956008.0215,Three Forks Trail,2.04666109,-123.2449124,47.92250913
900214.6567,974936.1062,Wolf Creek Trail,2.8838297,-123.5215117,47.9676247
944292.3901,811602.3966,Wagonwheel Lake Trail,2.54916806,-123.317936,47.52469884
616700.7738,1050308.583,Sand Point Trail,2.89295765,-124.6932884,48.13845302
879214.8985,984535.1679,West Lake Mills Trail,1.79526418,-123.6086889,47.99167686
882309.3582,1000398.47,West Elwha Trail,1.26775543,-123.5986081,48.03545213
807756.4378,1016578.351,Spruce Railroad Trail,6.24435429,-123.9058202,48.07133446
981042.0717,966177.28,Slab Camp,2.66177391,-123.1906259,47.95165447
1010358.664,928902.4002,Silver Lakes,2.25494327,-123.0661373,47.85222502
1002921.454,929493.2688,Tubal Cain,8.15836906,-123.0964854,47.85317667
1005216.958,927869.9141,Tull Canyon Trail,1.14075408,-123.0869259,47.84893634
1003846.081,899766.3682,Tunnel Creek,2.77832958,-123.0887499,47.77182423
915068.6951,770456.8939,Spider Lake Loop,1.51229036,-123.4299436,47.40905838
988399.7015,925884.6193,Upper Dungeness Trail,7.77163108,-123.155093,47.84196647
991657.5096,849558.144,The Brothers Trail,2.46986087,-123.1314714,47.63316822
835738.0552,782421.0601,West Fork Humptulips,14.88451038,-123.7520353,47.43331223
792619.8125,1001036.125,Tom Creek,1.43590802,-123.9648636,48.02697428
857510.4943,1001202.625,Upper Barnes Creek,4.39059385,-123.6999922,48.03494139
884170,920394.9062,Southern Bailey Range,4.17787529,-123.5782559,47.8165489
967560.5626,847263.9375,Scout Lake,3.11439119,-123.2288141,47.62463893
779313.6874,930734.8125,West Twin Creek,1.22071984,-124.0064092,47.8328724
806404.5138,911899.2813,South Fork Hoh River,1.00346063,-123.8929366,47.784541
805157.3751,968647.625,Slide Peak,4.06048061,-123.9079726,47.93978879
927645.4496,782110.4279,Skokomish South Fork,8.14654002,-123.3809056,47.44225421
838046.2109,1009006.156,Storm King Trail,1.27212247,-123.7807844,48.05411866
888722.9515,814006.0089,Wynoochee Pass Trail,2.46781194,-123.5430434,47.52562507
876764.0804,775159.6783,Wynoochee Lake Shore,14.84965698,-123.5852587,47.41793846
799502.3551,939574.0135,Spruce Bottom Nature Trail,1.1748017,-123.9258679,47.85950715
1045326.83,867716.3091,Steam Donkey Loop,1.36928149,-122.9161776,47.68762379
1030977.194,911479.7465,Lower Big Quilcene Trail,5.92612634,-122.9799869,47.8063028
1043034.638,903264.3101,Falls View Canyon Campground Trail,1.2460497,-122.9299234,47.7848239
1029941.886,946436.0091,Deadfall Trail,1.44904276,-122.9886837,47.90197681
1047624.452,896389.4398,Elbo Creek Trail,2.37691381,-122.9104112,47.76637471
1024065.511,955500.0604,Mt. Zion,1.78826355,-123.0138007,47.9262963
1012028.153,934527.2515,Mt. Townsend,5.57540175,-123.0600858,47.86778254
1030104.827,871081.5714,Mt. Jupiter,6.25403206,-122.9783709,47.69554955
1036311.387,915400.638,Notch Pass Trail,3.51236367,-122.9587918,47.81750213
1047397.004,902313.9314,Mt. Walker Trail,1.92177238,-122.9120719,47.7825871
1020576.68,953498.8577,Sleepy Hollow,8.01847164,-123.0277587,47.92050872
1602492.32,713457.8465,Billy Goat Gulch,1.82366109,-120.6528142,47.28962972
1629062.073,537561.1776,4WD Trail,1.41249554,-120.5453454,46.80744016
1505713.75,615698.165,Kaner Flat,7.31899288,-121.0400736,47.02043316
1505971.905,610379.8135,4WD Lilly Pond,2.5812068,-121.0388929,47.00585605
1526258.045,603271.3179,Summit A,1.08520123,-120.957417,46.98671696
1541806.517,599751.6239,Summit,8.48177369,-120.8950471,46.97729679
1518335.699,604872.7607,Milk Creek,1.58103702,-120.9891997,46.99097753
1527164.147,599908.4642,Mid Summit,2.25403741,-120.953709,46.97751082
1507770.025,630927.8562,Taneum Lake,1.01572507,-121.0322415,47.06222818
1516891.713,631200.3035,Frost,1.28397124,-120.9956488,47.06313814
1532128.28,647252.2502,Gooseberry Flat,1.06770521,-120.9348679,47.10739534
1407208,743229.9999,Mount Catharine,2.09198519,-121.4410904,47.36753888
1406827.5,739606.9999,Cold Creek,2.13418298,-121.4424511,47.35759454
1456417.5,738236,Kachess Lake Shore,1.23336729,-121.242334,47.35528803
1444157,779640,Chickamin Lake,1.84889615,-121.2934754,47.46846372
1529887,753309.0001,Koppen Mtn,6.95198723,-120.946278,47.39812749
1418530,423227.2813,(x),1.45984184,-121.3809831,46.49053285
1432965.73,437945.1249,Bear Creek Mountain,6.79788914,-121.3242821,46.53131765
1456933.75,449187.7015,Memorial Meadow-Blue Slide Tie,1.11903554,-121.2294669,46.56279269
1456066.75,443116.0625,Butcher Knife,2.69138042,-121.2326894,46.54612184
1428116.842,511405.2499,Round Lake,1.03308407,-121.3466802,46.73260351
1448869.375,503637.4062,1143,3.39764281,-121.2636219,46.71188534
1581376.605,705797.2447,Baker Ridge,1.55011791,-120.7378055,47.2684839
1464377.799,671256.372,Big Goat,1.88374922,-121.2077956,47.17186201
1470798.528,671916.5275,Big Creek,4.68065329,-121.1820042,47.173827
1404726.093,588902.5567,Basin,2.03413821,-121.4436547,46.94436077
1459800.5,436047.5001,Divide Ridge West,6.1820794,-121.217595,46.52683346
1638270.279,564870.8075,Davis,2.75073421,-120.5085836,46.88233213
1487342.5,483518.4999,Goose Egg Non-Motorized,2.38310901,-121.109632,46.65763743
1484984,510881.5,Little Rattlesnake,2.44712924,-121.119881,46.73261703
1429971,769219.4999,Gold Creek,4.98404322,-121.3503707,47.43949294
1485287,452032.4999,Divide Ridge,9.25718892,-121.1168373,46.57125686
1498777,460428.9999,613,4.34055308,-121.0634378,46.59455758
1578704.901,705361.3136,Baker Creek,2.92651966,-120.7485611,47.26726615
1515360.661,771278.785,Camp Creek Mine,1.593891,-121.0053934,47.44714997
1523404.126,764755.3553,Boulder De Roux,3.68019655,-120.9727299,47.42940337
1468372.375,654821.1875,Blazed Ridge,3.03852042,-121.1911565,47.12689956
1418453.625,539952.6249,Bumping Lake,9.38005496,-121.3864948,46.81058632
1467489.125,508319.2131,Burnt Mountain,2.78220662,-121.1895596,46.72519306
1527888.169,619695.413,Bucky,2.66590639,-120.951262,47.03177495
1613285.523,713862.9179,Hole In The Rock,3.2632981,-120.6093259,47.29078944
1585307.462,723957.042,Hovey Creek,3.46780038,-120.7221786,47.31830228
1644006.465,714495.9425,Grouse Spring,1.87364442,-120.4855343,47.2925756
1618037.502,720550.444,Dunning Ranch,1.33290386,-120.5902085,47.30914048
1640770.003,720515.5473,Howard Creek Tie,1.6527316,-120.4985757,47.30907988
1634693.202,713000.8782,Grass Camp,3.69822355,-120.5230619,47.28847531
1637120.261,715141.9171,Howard Creek,4.68492825,-120.5132839,47.29434675
1520558.966,769336.7131,Hawkins Mountain Mines,1.29445184,-120.9843377,47.4419154
1521881.028,773972.6382,Fortune Creek,6.94208944,-120.9791092,47.4546464
1507000.008,770029.5404,Hawkins Mountain,2.19733369,-121.0391461,47.44357355
1457639.954,803084.3721,Dutch Miller Gap,3.09724936,-121.2398563,47.53308973
1473400.875,652835.8126,Greek Creek Basin,3.05336638,-121.1708886,47.12157533
1457731.125,538469.8749,Dog Creek,1.5625744,-121.2295801,46.80762407
1457600,528856.3125,Hindoo,4.84155212,-121.2297485,46.78126104
1448792.625,652288,Cub Creek,2.22723733,-121.2697106,47.11945727
1408898.014,599274.9062,Crow Lake Way,10.99723584,-121.427441,46.97293468
1427195.875,611310.8749,Cougar Valley,2.99011751,-121.35467,47.00650078
1449756.75,591632.8749,Goat Peak,2.71634552,-121.2634799,46.95318281
1437758.875,567836.2499,Goose Prairie,5.18883415,-121.3105418,46.8876085
1422686,546433.6874,Fish Lake,1.73366995,-121.369878,46.82848569
1462936.75,788099.25,Escondido Lake,1.10462565,-121.2178648,47.49214606
1484077.875,760783.9999,Cooper River,4.35966514,-121.1314733,47.41776166
1441938.268,600893.0938,Fifes Ridge,7.37448374,-121.2951601,46.97836057
1416572.437,482995.1875,Dark Meadows,1.7555299,-121.3914366,46.65435599
1421749.812,489765.1249,Cramer Lake,3.97972698,-121.3711176,46.67307746
1480488.259,700982.2307,Easton Ridge,4.15560448,-121.1439995,47.25373685
1637287.367,688041.113,High Creek,1.57781691,-120.512593,47.22004583
1607860.284,688353.4725,Hidden Gulch,1.02329233,-120.6310163,47.22082878
1583788.115,699024.3158,Guard Station,3.39535495,-120.7280134,47.24993449
1415715.191,452392.176,Hidden Springs,1.89306926,-121.3934697,46.57041666
1482847.446,654373.5567,Cle Elum Ridge,14.60397567,-121.1329938,47.12600542
1513547.676,647791.281,Fishhook Flat,3.79862546,-121.0094965,47.10856826
1524987.554,636882.1345,Hoyt,4.28591273,-120.9632986,47.07885141
1527843.942,641826.639,Frost Creek,1.79426193,-120.9519479,47.09245356
1531807.793,643525.2912,Gnat Flat,1.35076567,-120.9360722,47.09717205
1530663.31,624716.8199,Divide,4.88123733,-120.9402458,47.04558574
1493199.041,664039.0959,Granite Creek,1.45681709,-121.0917018,47.15272564
1504122.713,628238.6597,Hereford Meadows,4.37046791,-121.046801,47.0547866
1530725.562,622999.6462,Divide Spur,1.03131151,-120.9399576,47.04087852
1385492.95,282481.1217,Gotchen Creek,2.82061736,-121.5050207,46.10351402
1388760.574,286736.3035,Cold Springs,3.34542066,-121.4923507,46.11529552
1393142.388,335323.3802,High Line,4.9214105,-121.4774479,46.2486751
1514742.776,487866.7657,Cow Canyon,6.20879196,-121.000621,46.67008942
1427348.892,528937.7423,Copper City,2.85013519,-121.3504966,46.7806534
1421268.085,738142.7758,High Horse,2.89059091,-121.3841271,47.35403896
1525521.983,761689.7717,Deroux Spur,1.0532823,-120.9641011,47.42103381
1487114.337,805694.0206,Cathedral Pass,4.27258642,-121.1206364,47.54094019
1477435.452,718113.7578,Domerie Peak,9.8124789,-121.1568664,47.30063459
1476568.768,707536.4259,Domerie Divide,1.15600519,-121.1600026,47.27161671
1491626.171,737816.0811,Howson Creek,2.84357706,-121.1002799,47.35495835
1506872.194,720841.9405,Corral Creek,3.04400751,-121.0383061,47.30872539
1477981.5,440847.5,Gray Rock Trail,15.557897,-121.1455207,46.54042627
1496129.234,766812.3054,Davis Peak,3.49656835,-121.082978,47.4345419
1609398.611,683334.6216,First Creek Jeep,2.20529711,-120.6247937,47.20707546
1514468.653,633381.0536,Frost Mountain,4.71407823,-121.0054272,47.06907512
1737089.5,671228.5,Gd Jeep Trail,2.54424793,-120.1113029,47.17329805
1605050.832,722489.4436,Hurley Creek Ski Trail,6.43666961,-120.6425706,47.31440389
1585383.548,739670.6102,Iron Bear,5.27616211,-120.7220502,47.36138245
1592526.874,730748.4538,Iron Creek Trail,3.19079169,-120.6931399,47.33697351
1533157.681,772189.4221,Ingalls Way,2.79905781,-120.9334915,47.44993675
1541349.652,761702.9657,Iron Peak,2.53893803,-120.9001689,47.4213077
1429477.625,575850.4375,Kettle Creeek,4.90751063,-121.3440037,46.90934383
1520204.188,619887.3094,Keenan Meadow,1.7115168,-120.9820803,47.03217645
1446630.242,496908.1754,Ironstone Mountain,10.14761091,-121.2722852,46.69337419
1501359.986,752000.5137,Jolly Mountain,4.8283843,-121.0614185,47.39404078
1510433.839,754741.0326,Jolly Mountain Spur,1.81090325,-121.0248591,47.40172502
1516318.642,749274.2986,Jolly Creek,2.84583606,-121.0009572,47.38684319
1535601.337,749084.7665,Johnson Medra,5.12513923,-120.9231146,47.38663325
1540077.157,740254.0188,Jungle Creek,3.90012508,-120.9048641,47.36248827
1496076.515,783107.2328,Lake Michael,5.29882453,-121.0836782,47.47921098
1476247.038,803544.957,Lake Vicente,1.56027429,-121.1645568,47.5348064
1467164.591,732807.3007,Kachess Ridge,12.53120392,-121.1987838,47.34067472
1572032.813,746995.8885,Miller Peak,4.04015825,-120.7760214,47.38134925
1638373.713,717047.941,Old Ellensburg,3.25601943,-120.5082335,47.2995728
1601795.89,707993.8394,Lion Gulch,2.08199859,-120.655577,47.27464575
1626111.485,715921.7323,Naneum Rim,1.12874865,-120.5576493,47.29647114
1628706.665,713171.5393,Naneum Creek,4.43310945,-120.5471842,47.28893589
1518739.637,785143.6772,N. Fork Fortune Cr.,1.17264328,-120.9920878,47.48521722
1512501.026,774100.7769,Mine To Market,2.62954625,-121.0170246,47.4548353
1463840.127,652275.625,Manastash Ridge-west,14.21358,-121.2092711,47.11981013
1430078.404,652249.8997,Legos,4.46505985,-121.3448742,47.11882767
1628640.824,699022.7172,Naneum Wilson,6.39559599,-120.5474153,47.25014481
1528241.25,611388.4999,Manastash Lake,4.05616692,-120.9496562,47.00900432
1443178.678,537007.8749,Mount Aix,12.70275305,-121.2876353,46.80323163
1476148.75,514191.9999,Mjb,3.6060863,-121.1552249,46.74149858
1413603.375,564858.5,Mesatchee Creek,4.41106236,-121.4070082,46.87872292
1493088.25,471574.8749,Louie,1.51748008,-121.0863963,46.62500677
1497372.125,474000.9375,Long Lake,1.10801825,-121.0694159,46.63174527
1446263.341,566533.6563,Nile Ridge,5.84397093,-121.2764787,46.88427158
1445548.875,543195.4375,Nelson Ridge,5.8816428,-121.2784148,46.82026182
1421023.375,450189.125,N Fork Tieton,4.43990633,-121.3722679,46.56453881
1435342.5,495154.1092,Mcallister,1.67057245,-121.317194,46.68825273
1611333.227,687579.2078,Meadow,1.84482747,-120.6170356,47.21872096
1621749.175,707873.0906,Naneum Meadows,2.10646447,-120.5751983,47.27439473
1629464.527,697701.1546,Nealey Creek,2.3055005,-120.5440956,47.24652284
1583006.313,702434.5334,Mill Gulch,1.46049885,-120.7312015,47.25927786
1477150.909,660168.1975,Little Creek Basin,3.97514787,-121.1560707,47.14176487
1492118.471,655429.141,Lightning Point,2.20723256,-121.0957833,47.12909751
1530624.348,649662.2725,North Fork Taneum,14.71570052,-120.9409614,47.11398014
1476942.776,663284.1421,North Ridge,6.74629807,-121.1570113,47.15030301
1504796.043,622629.1079,Manastash Ridge,7.5737314,-121.0439445,47.03941916
1508516.143,602500.5947,Milk Creek Motorcycle,3.23388129,-121.0284836,46.98429973
1469506,636654.9747,Mount Clifty,4.42910508,-121.185968,47.07712037
1501101.396,580538.0292,Lost Creek,2.58587856,-121.0575691,46.92394135
1472633.911,587040.651,Little Bald Mountain,10.37712213,-121.1717186,46.94116242
1533455.818,756743.6147,N Fork Teanaway,5.23137852,-120.9319447,47.40759778
1521420.935,739932.5706,Middle Fork Teanaway,12.53189312,-120.9801313,47.36132009
1479700.921,747228.143,Little Joe Lake,1.54516808,-121.1487013,47.38050218
1456624.411,749747.4056,Little Kachess,4.1780793,-121.2419361,47.38685082
1431662.381,748875.0298,Lake Lillian,3.90783596,-121.3426585,47.38377192
1448007.762,766844.1164,Mineral Creek,4.65952192,-121.277398,47.43349149
1442112.503,662667.0627,Blowout Mountain,1.86391347,-121.2969625,47.14773104
1605212.396,726663.3281,Porky Basin,1.65583704,-120.6419496,47.32584773
1611764.888,724996.7114,Pipe Creek,2.18270104,-120.615519,47.32130789
1500494.589,804661.7148,Paddy Go Easy Pass,2.26587098,-121.0664391,47.53838639
1486353.041,822424.3567,Robin Lakes,1.81438845,-121.1242544,47.58678505
1440644.25,427139.625,S Fork Tieton,8.65715516,-121.2933427,46.50190431
1489045.125,620345.9999,Quartz Creek,7.50794681,-121.1070452,47.03284426
1480987.25,627256.875,Quartz Mountain,6.81476558,-121.139583,47.05161772
1455156.25,551898,Richmond Mine,8.85168906,-121.240366,46.84437694
1434634.5,526211.8125,Pear Butte,7.38337361,-121.3213037,46.77339087
1458175.761,519531.7968,Rattlesnake Peaks,4.67440245,-121.2271073,46.7557083
1440709.375,586396.4376,Pleasant Valley Lake,2.2933923,-121.2994944,46.93857976
1464814.125,775030.0626,Pete Lake,5.98310599,-121.2097959,47.45636614
1434064.788,510751.4219,Pear Loop,2.45686276,-121.3229335,46.73098337
1475619.442,771863.9103,Polallie Ridge,7.36505654,-121.1660143,47.44794501
1639227.059,689985.2748,Ragan Spur,1.23262125,-120.5047877,47.2253767
1634463.926,694376.0346,Ragan,2.55231017,-120.5239629,47.23741238
1593985.287,691515.6387,Pit Overlook,4.19412464,-120.6868833,47.22942177
1451895.096,622649.1185,Sand Creek,12.18733392,-121.2561082,47.0382787
1400349.988,285071.1951,Pine Way,2.5641802,-121.4465761,46.11112025
1458517.776,487462.9437,Russell Ridge,8.59722587,-121.2245675,46.66778473
1433807.016,588845.6029,Pleasant Valley Loop,12.21128962,-121.3272276,46.94509971
1512765.775,758788.4455,Paris Creek,4.41025435,-121.01555,47.41286288
1436674.522,621864.2336,Pipeline,6.58857647,-121.3171169,47.03571058
1443745.87,759376.5086,Rachel Lake,4.33818741,-121.2943125,47.41290389
1581987.112,729846.3508,Teanaway Ridge,7.21605127,-120.7356358,47.3344218
1603277.869,725417.5627,Swauk Campground,4.21782954,-120.6497404,47.32242256
1616619.494,729535.9808,Swuak Meadow Spur,1.22727136,-120.5959684,47.33377048
1566087.41,751605.8785,Stafford Creek,4.66912742,-120.8000897,47.39392797
1424732.75,449093.5937,Tieton Meadows,4.47709869,-121.3574739,46.56164638
1456194,659796.5001,Upper Big Creek,2.22929714,-121.2402657,47.14023722
1422708.125,513515.2969,Sand Ridge,9.44047326,-121.3683418,46.73822786
1458656.25,505801.7813,Shellrock Peak,3.23447175,-121.2246871,46.71807318
1465276.25,555939.6875,Windy Ridge,3.16558234,-121.2000684,46.8557122
1463877.375,574340.8126,Soda Spring,4.86796975,-121.2063183,46.90613163
1411766.018,586253.125,Union Creek,6.70070175,-121.4153478,46.93732416
1406674.792,547104.7499,Swamp Lake,3.71115611,-121.433872,46.82982366
1465271.318,608028.7188,West Quartz Creek Loop,12.50498405,-121.201941,46.99853202
1444886.25,420454.6874,Ten Day,4.30502948,-121.2762366,46.48368947
1469530.125,786392.75,Waptus Pass,5.42037256,-121.191137,47.4876295
1467964.625,788231.2499,Waptus Burn,1.83191875,-121.197534,47.49263157
1483861.375,774000.125,Waptus River,7.91376002,-121.1327759,47.45398713
1423987.188,516383.9062,Twin Sisters,4.23031128,-121.3633659,46.74613184
1416065.125,458818.8282,Shoe Lake,1.46388514,-121.3923675,46.58804936
1424888.375,489048.2968,Sprial Butte,2.04700102,-121.3585843,46.67120632
1606324.329,685619.1495,Tuff Ridge,3.36642755,-120.6371783,47.21332495
1622924.985,704413.4597,Showshoe Ridge,3.38806479,-120.5704494,47.26491264
1455324.712,620176.0669,Sand Creek Cutoff,1.60013765,-121.2422604,47.03158755
1494618.771,643056.6074,Taneum Ridge,10.91563028,-121.0853699,47.09522682
1495807.513,644943.5209,South Fork Taneum,8.37585807,-121.0806531,47.10042433
1519074.094,615060.2175,Shoestring,3.36961531,-120.9864927,47.0189224
1512554.822,614228.2618,String,1.50561543,-121.0126077,47.01652812
1515619.402,611625.8653,Tipover,1.98602691,-121.0002557,47.00944675
1502807.845,630028.6644,Wells Meadow,1.06881376,-121.0521262,47.05966928
1521172.909,612726.6438,Tripod Flat,4.3555176,-120.9780215,47.01255933
1515293.793,621329.2767,Shoestring Lake,3.65635979,-121.0018084,47.03604608
1525544.896,623109.0628,South Fork Manastash,2.65585643,-120.9607388,47.04109742
1389193.048,300637.9812,South Climb,3.11445859,-121.4913345,46.15342997
1384552.891,297815.7455,Shorthorn,2.78426208,-121.5095001,46.14552979
1528750.149,763474.0957,South Esmerelda Peak,1.86742196,-120.9511028,47.42597673
1536134.358,735804.8833,Way Creek,4.60026182,-120.9206771,47.35023436
1506572.546,732637.296,West Fork Teanaway,10.19078683,-121.0398393,47.34105694
1554942.319,750028.9502,Standup,4.62559412,-120.8450574,47.3894799
1489540.286,794010.0318,Trail Creek,5.00187681,-121.1104494,47.50896323
1472121.613,799751.0881,Spade Lake,3.42293951,-121.181123,47.52431003
1470977.82,776087.0588,Tired Creek,2.80351915,-121.1849203,47.4594131
1476040.048,724734.735,Silver Creek Tie,1.63512229,-121.1627143,47.318754
1473433.97,744041.8611,Thorp Creek,2.07015293,-121.1738857,47.37162318
1501118.537,734811.1872,Sasse Mountain,8.35419354,-121.0618989,47.34691222
1506213.5,427848.5001,Whites Ridge Trail,5.32874018,-121.0329809,46.50535982
1393404.67,288671.1788,Snipes Mountain,4.88614392,-121.4741339,46.12075987
1461612,428814.0001,Trail,1.01030529,-121.2101395,46.50704355
1461072.596,625985.9096,Yellow Jacket,3.70256495,-121.2194239,47.04766266
1513877.139,733545.944,Yellow Hill,9.50552055,-121.0104019,47.34368132
1554102.422,368036.2381,Fort Simcoe,1.26063419,-120.8417663,46.34207134
1607178.143,540368.643,Kelley Hollow,5.44328259,-120.6327591,46.81507058
1574823.048,579965.3243,Observatory Road,7.51429233,-120.7625153,46.92342187
1709074.235,605310.0264,Whiskey Dick,2.66754557,-120.2248686,46.99288617
1708777.718,616096.1547,Bitterroot,4.93832955,-120.2259067,47.02246318
1504045.03,508947.8201,Bethel Ridge,4.92069341,-121.0438131,46.72770041
1462415.447,452309.1357,Blue Slide,4.37379505,-121.207786,46.5714888
1458519.244,446264.9317,Memorial Meadows,4.25336815,-121.2230573,46.5548183
1453875.246,430659.1052,Narrow Neck Gap,2.4745706,-121.2409338,46.51190784
1493540.127,468228.2139,Pickle Prarie,2.03046029,-121.0844991,46.61583918
1478250.276,454821.6433,Buckhorn Gap,1.92095289,-121.1449067,46.57875059
1481563.843,452424.0195,Leaning Tree,2.93583516,-121.1316534,46.57224964
1483688.122,533012.2423,4WD Rattlesnake,2.810632,-121.125749,46.79327105
1479875.44,551952.3473,Mud Springs,11.40295873,-121.1415858,46.84511972
1475521.998,555646.8611,Sweet Home,1.28403152,-121.1591065,46.85515134
1481394.424,560951.4873,Clover Springs,7.636221,-121.1358055,46.86982831
1468704.678,455903.0573,Short and Dirty,5.02900231,-121.1829032,46.58149559
1464700.332,450502.9616,Donniker,1.13625932,-121.1986375,46.56659201
1465106.323,458466.3611,Spencer Creek,2.04578086,-121.1973033,46.588438
1475251.49,452085.5735,Humphrey Butte,4.2592435,-121.1567411,46.57118023
1492638.512,469033.7477,Pickle Prarie Loop,1.15657477,-121.0881108,46.61802964
1479135.661,454290.9409,Buckhorn Gap Loop,1.05376466,-121.1413686,46.57731516
1503604.452,501650.5035,Bethel Oak,4.34970781,-121.0453688,46.70768261
1499766.708,503596.643,Bethel,1.23335061,-121.0607216,46.7129452
1535099.015,599687.6027,Summit Springs Tie,2.64833985,-120.9219164,46.97702601
1527072.926,592202.921,Cattle Camp,1.55732949,-120.9538968,46.95638174
1471000.19,455378.842,Spruce Creek,1.7337916,-121.1737565,46.58011229
1484010.777,459749.0867,Hog Back,2.83146629,-121.1221537,46.59238889
1486938.002,468203.7501,Sleepy Loop,1.08211709,-121.1107706,46.61563493
1440611.048,450716.4638,Section 3 Overlook,2.55526099,-121.2944175,46.56655226
1523986.59,599071.1625,CJR's Hideout,1.81230727,-120.9664187,46.97516424
1530483.634,604490.6109,Manastash Bypass,1.07557559,-120.9405134,46.99012603
1456456.914,447043.9815,Memorial Meadow-Blue Slide,1.60585206,-121.2312835,46.55690237
1435273.74,640662.7091,Naches Pass,6.33699804,-121.3235215,47.08721028
1409086.176,733448.0944,Twilight Lake,1.01829147,-121.433045,47.34078438
1578769.084,628247.437,Joe Watt Canyon Loop,10.83895612,-120.7473287,47.05584096
2507365.671,393947.3384,Greenbelt Trail,3.25968776,-117.0649454,46.36186347
1171108.739,826131.4013,Alki Trail,4.24031093,-122.4016342,47.58310949
1203426.282,869391.1808,Burke Gilman Trail,20.06502347,-122.2746726,47.70372474
1181820.79,720705.0626,BPA Trail,3.59609224,-122.3482372,47.29486843
1185045.82,835649.5581,Elliott Bay Trail,1.49348704,-122.3460846,47.61010132
1225541.63,785564.2718,Cedar River Trail - Renton,2.16751614,-122.1776477,47.47531515
1190110.34,806625.8385,Duwamish Trail,2.01163189,-122.3228416,47.53088342
1225884.218,823746.0762,I-90 Trail,1.01001394,-122.1795499,47.57998073
1213114.457,745885.8212,Green River Trail - Lower,2.32213253,-122.224377,47.36582846
1230705.016,810753.0371,Coal Creek Trail - N1,2.66053121,-122.1589164,47.54465059
1188243.181,761860.155,Des Moines Creek Trail - Des Moines,1.08767002,-122.3262024,47.40807667
1219399.898,798430.1229,Coulon Park Trail,1.06869956,-122.2035991,47.51021644
1201332.979,802944.938,Chief Sealth Trail,1.56295954,-122.2770923,47.52149744
1209281.771,745973.7278,Interurban Trail,14.74767274,-122.2398467,47.36583868
1219870.663,853306.4474,Lake Washington Public Access Trail,2.21052253,-122.2064981,47.6606397
1204484.21,759163.5036,Kent Puget Power Trail,1.16028021,-122.2603886,47.40169794
1225176.686,829226.8874,Lake To Lake Trail,3.98392706,-122.1828894,47.59496032
1221591.43,810760.1081,Lake Washington Trail,5.58884549,-122.1958065,47.54413873
1189127.961,860461.6844,Green Lake Trail,2.80599743,-122.3318772,47.67835835
1215826.25,749061.8125,Mill Creek Park,1.51819808,-122.2137155,47.37469549
1174829.418,853436.8899,Magnolia Connector,2.01731327,-122.3892134,47.65818324
1233359.081,747427.1004,Soos Creek To Lake Youngs Trail,1.13197216,-122.1428336,47.37123754
1227269.603,881500.8204,Tolt Pipeline Trail West,1.55401779,-122.1789186,47.73834095
1236877.902,849066.9831,Sr-520 Trail,4.60011332,-122.1371491,47.65000926
1216786.319,712542.1756,White River Trail,2.09866898,-122.2066529,47.27465456
1181291.95,821703.7361,West Seattle Bridge Trail,1.06306837,-122.3599644,47.57164105
1233551.175,749295.7937,Soos Creek Equestrian Trail,1.02943397,-122.1422156,47.37637046
1184922.67,725096.1807,West Campus Trail,1.03047756,-122.3361524,47.30710246
1181916.982,850861.8066,Ship Canal Trail,1.85988126,-122.3602185,47.65158821
1183489.188,856846.9375,Seattle Interuban Trail,8.10845245,-122.3544129,47.66809136
1193968.198,782663.9906,South 156th Way Trail,1.16433735,-122.3050112,47.46545552
1211782.419,779841.0561,Springbrook Trail,3.18824485,-122.2327604,47.45881372
1208946.756,815244.369,Seward Park Trail,2.49935585,-122.24739,47.55567205
1228420.418,850529.9295,Trillium,1.15709953,-122.1715766,47.65353236
1230138.412,850491.3126,Bridle Trails,1.22271896,-122.164605,47.65352611
1236234.315,802770.1505,Cougar Mountain W9 - De Leo Wall,1.09155331,-122.1358645,47.52308817
1238172.126,862705.6052,Sammamish River Trail,2.7119188,-122.1330454,47.6874603
1269759.6,741480.3858,Anaconda,1.09889021,-121.9955076,47.35692277
1259637.431,750057.0997,Green River To Cedar River Trail,3.26592267,-122.0370121,47.37989835
1266300.222,819882.9386,East Plateau Trail,1.18523648,-122.0155393,47.57163674
1258904.946,813660.402,East Lake Sammamish Trail,2.22817414,-122.0449961,47.55418887
1259249.125,868364.4642,Gasline Trail,1.28958683,-122.0479497,47.70413364
1238600.2,804400.1869,Cougar Mountain W1 - Wildside Trail,1.01892764,-122.1264277,47.52768982
1238226.552,801992.7544,Cougar Mountain W7 - Indian Trail,1.27403612,-122.1277387,47.5210705
1241936.888,806570.0991,Cougar Mountain C1 - Clay Pit Road,1.27065843,-122.1131052,47.53382485
1239980.411,805824.1949,Cougar Mountain C3 - Cave Hole Trail,1.2291498,-122.1209611,47.53167056
1242035.763,803227.1901,Cougar Mountain C6 - Quarry Trail,1.00519415,-122.1124285,47.52466826
1248068.081,807821.3484,Cougar Mountain E1 - Shangri La,1.1661022,-122.088394,47.5375953
1246191.929,800301.107,Gombu Wilderness Cliffs Trail,1.24652126,-122.0953717,47.51688017
1240070.878,802060.4044,Cougar Mountain S2 - Shy Bear Trail,1.71204377,-122.1202821,47.52136
1241004.008,797765.8157,Cougar Mountain S6 - Licorice Fern,1.42936053,-122.1161505,47.50964196
1268503.117,682576.4642,Enumclaw Foothills Trail,1.30013274,-121.9960688,47.19539359
1253730.561,797384.5646,Chybinski Loop Trail,1.26856201,-122.0646379,47.50930042
1261878.244,796450.7301,East Ridge,1.02187453,-122.0316052,47.50717929
1246540.241,711010.7115,Green River Natural Area Trails,1.00684523,-122.0866946,47.27215962
1267347.025,749446.7447,Danville-georgetown Open Space Private,1.53290637,-122.005853,47.37863302
1266472.5,792335,Chirico Trail,1.77677843,-122.0127016,47.49614168
1267679.5,803760.4999,Gas Line Trail,1.04095514,-122.0087041,47.52752071
1262948.5,802788.5,High School Trail,1.55950108,-122.0277725,47.524607
1265486.671,806346.4731,Issaquah To High Point Trail,2.08198503,-122.0177791,47.53449311
1266306.735,818822.6169,Klahanie Equestrian Trail,1.27601613,-122.0154304,47.56873098
1257168.759,765084.0582,Cedar River Trail,12.74660655,-122.0481647,47.42095446
1233474.701,764980.8096,Lake Youngs Trail,9.1772862,-122.1438434,47.41935721
1251355.707,812902.4276,Newport Way Trail,2.22276081,-122.0754987,47.5517021
1261297.001,804578.2474,Rainier Greenway Trail,1.49332041,-122.0345961,47.5294245
1262683.466,860519.2148,Redmond Ridge Trail,1.38518105,-122.0333868,47.68281685
1240885.361,865813.0306,Redmond Pse Trail,4.79584265,-122.1222927,47.69612978
1258266.727,869112.034,Redmond Watershed Preserve Trails,1.34623845,-122.051998,47.70612949
1263572.582,874544.6037,Redmond Ridge Trail Site Trails,1.32890931,-122.0308833,47.72130201
1240691.778,857225.6831,Redmond Central Connector Trail,1.07363683,-122.1223614,47.67258481
1268790,797206.4999,Poo Poo Point Trail,2.08655432,-122.0037046,47.5096153
1268063.025,804608.5002,Puget Power Trail,1.08035872,-122.0072177,47.52986504
1261839.703,876952.5713,Tolt Pipeline Trail East,6.73110067,-122.0381118,47.72780877
1245928.96,799904.817,Whittaker Wilderness Peak Trail,1.89286966,-122.0964032,47.51577943
1270010,799556.5001,Section Line Trail,1.61811992,-121.99895,47.51611998
1256729.656,814791.0388,Issaquah Creek,1.29612628,-122.0538932,47.55717056
1258732.77,713534.0125,Flaming Geyser,1.37763938,-122.037789,47.27973825
1259510.252,796974.6022,East Side,1.78736488,-122.0412253,47.50848871
1257080.06,788614.1338,Mae Valley Loop,5.04142149,-122.050391,47.48544335
1256581.85,790115.9342,Squak Mountain Road SE,1.21658505,-122.052525,47.48953271
1355305.805,779478.6231,Mailbox Peak Trail,1.21285504,-121.652647,47.46501653
1428092,995803,Bedal Creek,2.10546823,-121.3680384,48.06047051
1448039.264,970528.7374,Bald Eagle,11.8014296,-121.2854655,47.99178064
1394149.1,843992.7979,Bare Mountain Trail,4.17142686,-121.4989322,47.64330543
1381222.531,761693.0046,Bandera Mountain Trail,1.07724617,-121.5469294,47.41725354
1400449.796,746631.8618,Annette Lake Trail,3.26537128,-121.4685283,47.37664022
1276873.182,791973,15 Mile Rr Grade,1.64420041,-121.9706107,47.49568864
1407912.346,1034013.249,Beaver Lake,2.25391951,-121.4524165,48.1645387
1524456.172,1033708.043,Buck Creek Pass,3.88087171,-120.9750233,48.16659218
1375341.108,806529.4031,C C C Trail,5.773541,-121.5731463,47.53994031
1437107.502,946040.684,Blanca Lake,2.57562613,-121.3290452,47.92436278
1322117.47,1060726.319,Boulder River,3.80626934,-121.8056171,48.23436796
1273371.5,801387.5,Cable Line Trail,1.57953996,-121.9854896,47.52131282
1523804.853,1054615.85,Canyon Lake,5.25376076,-120.9782106,48.22387404
1491763.813,1037683.375,Grassy Point,2.53271233,-121.1090661,48.17687005
1430406.898,982224.8124,Goat Lake,1.75568387,-121.3579714,48.02333013
1421230.189,990372.707,Elliot Creek,6.47309202,-121.3958367,48.04537917
1276126.995,815743.9147,Grand Ridge Park Trails,2.69196956,-121.975427,47.56080322
1289124.047,848597.3728,Cottonwood Loop Trail,1.10953041,-121.9252026,47.65150219
1288406.79,765016.3462,Elk Ridge,1.16490504,-121.9219994,47.42238115
1278318.54,768931.136,Holder Ridge,1.50885016,-121.9630366,47.43260584
1463459.951,845984.1029,Fisher Lake,1.20925406,-121.2178795,47.65083128
1473258.151,847007.5194,Deception Creek,9.30472052,-121.1781678,47.65387422
1419869.352,805542.2217,Dingford Creek Trail,5.95464435,-121.3928475,47.53875554
1421152.591,798423.9251,Hester Lake Trail,2.36435752,-121.3873288,47.51928282
1401403.242,783640.2204,High Lakes Trail,3.80382185,-121.4665107,47.4781217
1404117.639,767355.3991,Denny Creek Trail,4.48624503,-121.4547384,47.43357195
1398424.459,759074.1788,Granite Mountain Trail,2.78328699,-121.4773241,47.41067979
1357593.565,679961.5447,Grass Mountain Trail,8.09978331,-121.6375971,47.19230291
1359181.235,671780.0936,Christoff Trail,1.93590219,-121.6307402,47.16993648
1373887.65,668398.5998,Divide Trail,7.61079713,-121.5714341,47.16122904
1418670.939,770653.0766,Commonwealth Basin Trail,3.16711022,-121.3960941,47.44307983
1283322.518,790072.5,East Tiger Summit,1.0261335,-121.9443869,47.49080621
1274519.5,788042,Hobart-mid Tiger Rr,1.63102468,-121.9798313,47.48479347
1281481,793905.9999,East Tiger Trail,1.35364014,-121.9521193,47.50122083
1514581.97,1022001.537,Dusty Ridge,1.99083136,-121.0151579,48.13434265
1406291.857,1018499,Falls Creek Pass Lake,5.25957439,-121.4582819,48.12197284
1508886.941,1032337.639,Gamma Way,3.36431619,-121.0387613,48.16256268
1459220.003,1075445.682,Green Mountain,2.97045845,-121.2438577,48.27957928
1276052.95,803214.8245,Highpoint Trail,1.05444857,-121.9747781,47.52645919
1456168.709,897619.3752,Johnson Ridge,6.16165706,-121.2494472,47.79217552
1466915.697,874259.6957,Iron Goat Trail,8.17722054,-121.204886,47.72842043
1422986.381,824673.652,Lake Dorothy,4.28413644,-121.3810949,47.59129314
1392649.424,774953.629,Kaleetan Lake Trail,3.48940263,-121.5014593,47.45401062
1374741.336,763111.417,Ira Spring Trail,3.5699195,-121.5731828,47.42090295
1393952.799,676979.1432,Kelly Butte Trail,5.15792508,-121.4912155,47.18547192
1283936.667,782264.4999,Iverson Railroad,1.3462611,-121.9413263,47.46943574
1388154.602,1020224.482,Independence/ North Lake,2.08550543,-121.5326026,48.12607377
1278862.941,806161.7175,Issaquah To Preston Trail,1.30151999,-121.9636285,47.53467969
1471878.036,1018221.569,Kennedy Ridge,1.36315936,-121.1898415,48.12309034
1378927.007,898138.5849,Lake Serene,2.09910728,-121.5636316,47.79116533
1279051.212,771021.5947,Holder Creek,1.30224855,-121.9602333,47.43837297
1520677.511,1046802.406,Miners Ridge,8.58150026,-120.9908357,48.20241087
1466441.186,1034739.901,Meadow Mountain,10.46232621,-121.2127047,48.16822279
1463940.831,989257.3459,North Fork Sauk,7.85332151,-121.2212433,48.04352244
1462199.005,957121.3459,N. Fork Skykomish # 1051,6.79770978,-121.2271509,47.95540894
1362078.406,791555.0048,Middle Fork Snoqualmie Natural Area,1.39233906,-121.6259673,47.4983874
1308082.743,864753.5833,Moss Lake Natural Area Trails,1.3208053,-121.8494234,47.69669585
1393560.04,833101.2785,Lennox Creek Trail,2.40834042,-121.5007608,47.61343144
1394204.219,824416.9787,Marten Lake Trail,1.04906736,-121.4977043,47.58964994
1408831.891,815873.1164,Nordrum Lake Trail,2.00192314,-121.438024,47.56672265
1456315.585,834578.8188,Necklace Valley,8.0942538,-121.2464233,47.6193867
1424418.144,791074.2191,Middle Fork Trail,8.2492084,-121.3737852,47.4992358
1398807.223,771155.4567,Melakwa Lake Trail,2.7747915,-121.4763824,47.44381063
1374175.368,769275.8709,Mt Defiance Trail,6.07757606,-121.5758083,47.43777985
1364059.613,757658.3801,Mcclellan Butte Trail,4.52987025,-121.6160138,47.40554863
1403344.902,645548.2502,Naches Pass West Trail,4.30797841,-121.4519211,47.09961945
1291309,784465,Nw Timber Trail,2.18651041,-121.911684,47.47583272
1463484.121,1015141.97,Lost Creek Ridge/ Round Lake,7.7283612,-121.2240809,48.11444505
1368761.401,1006732.025,Marten Creek,2.76569,-121.6111981,48.08837943
1277222.5,786839.9999,Middle Tiger Trail,1.41982695,-121.9688114,47.48163738
1514679.419,1045250.733,Miners Cabin,1.95278616,-121.0153809,48.19805408
1418375.406,1025776.725,Mt. Pugh,2.88546761,-121.4091713,48.14230743
1387849.236,1048557.312,Old Sauk,2.84866971,-121.5353747,48.2036982
1420811.5,966246.0625,Poodle Dog Pass,1.69982495,-121.3964272,47.97924834
1289469.463,805181.247,Preston Snoqualmie Trail,3.11945916,-121.9206295,47.53252392
1313562.64,782822.0465,Rattlesnake Mountain Trail,3.67136562,-121.8216032,47.47238635
1325989.198,769441.7954,Rattlesnake Lake Recreation Area,2.10101412,-121.7704951,47.43627
1274914.353,832634.8029,Pipeline Trail,1.08853303,-121.9816221,47.60703522
1380481.432,821110.883,Quartz Creek Trail,2.57723283,-121.5531266,47.58009879
1407936.076,783631.8989,Rock Creek Trail,3.49679696,-121.4400957,47.47831533
1385343.788,778447.9173,Pratt River Trail,15.12643509,-121.5311695,47.46333111
1471555.213,951156.0492,Pass Creek,3.41150524,-121.1887658,47.93929048
1400411.789,1027999.777,Peek-a-boo Lake,1.76704158,-121.4828313,48.14780864
1461653.854,977707.3552,Pilot Ridge,8.9859062,-121.2301526,48.01181223
1286622,790876.5001,Preston Rr Grade,3.18506025,-121.931103,47.49317478
